{"version": 0.6, "generator": "Overpass API 0.7.62.11 87bfad18", "osm3s": {"timestamp_osm_base": "2026-04-24T16:27:11Z", "copyright": "The data included in this document is from www.openstreetmap.org. The data is made available under ODbL."}, "elements": [{"type": "node", "id": 2210081821, "lat": 26.7306416, "lon": 88.4120143}, {"type": "node", "id": 2235033590, "lat": 26.7134686, "lon": 88.4239628, "tags": {"addr:city": "Siliguri", "addr:country": "IN", "addr:state": "WB", "addr:street": "Hill Cart Road", "amenity": "restaurant", "contact:email": "travelhbi@gmail.com", "contact:phone": "+91-0353-2431706", "internet_access": "no", "name": "Bengal International", "tourism": "hotel"}}, {"type": "node", "id": 2235033604, "lat": 26.7247945, "lon": 88.4296868}, {"type": "node", "id": 2235033607, "lat": 26.7248168, "lon": 88.4291781}, {"type": "node", "id": 2235033609, "lat": 26.7250764, "lon": 88.4297051}, {"type": "node", "id": 2235033611, "lat": 26.7251027, "lon": 88.4291967}, {"type": "node", "id": 2235033638, "lat": 26.7382158, "lon": 88.4342297}, {"type": "node", "id": 2235033640, "lat": 26.7382945, "lon": 88.4339626}, {"type": "node", "id": 2235033642, "lat": 26.7383446, "lon": 88.4338897}, {"type": "node", "id": 2235033643, "lat": 26.7384097, "lon": 88.4338785}, {"type": "node", "id": 2235033644, "lat": 26.7384197, "lon": 88.4338364}, {"type": "node", "id": 2235033645, "lat": 26.7384599, "lon": 88.4335419}, {"type": "node", "id": 2235033648, "lat": 26.7384689, "lon": 88.4338345}, {"type": "node", "id": 2235033649, "lat": 26.738906, "lon": 88.4335247}, {"type": "node", "id": 2235033651, "lat": 26.7389358, "lon": 88.4344956}, {"type": "node", "id": 2820202101, "lat": 26.7403968, "lon": 88.4348939, "tags": {"addr:street": "hill cart road", "amenity": "restaurant", "cuisine": "chinese;international;breakfast;chicken;indian;curry", "internet_access": "wlan", "name": "kaanha khazana"}}, {"type": "node", "id": 4280764885, "lat": 26.7155287, "lon": 88.4226616, "tags": {"addr:postcode": "734001", "addr:street": "Hill Cart Road", "amenity": "restaurant", "check_date": "2025-07-27", "contact:email": "info@mahabir.com", "contact:phone": "+91 98-00-065111", "contact:website": "http://www.mahabirs.com", "cuisine": "chinese;indian;ice_cream;noodles;sandwich;tea", "diet:vegetarian": "only", "name": "Mahabir Bhojanalaya", "name:bn": "\u09ae\u09b9\u09be\u09ac\u09c0\u09b0 \u09ad\u09cb\u099c\u09a8\u09be\u09b2\u09df", "opening_hours": "Mo-Su 07:30-22:00"}}, {"type": "node", "id": 4360144589, "lat": 26.7318783, "lon": 88.4337729}, {"type": "node", "id": 4360144590, "lat": 26.7317476, "lon": 88.433761}, {"type": "node", "id": 4360144591, "lat": 26.7317511, "lon": 88.4336819}, {"type": "node", "id": 4360144592, "lat": 26.7312895, "lon": 88.433594}, {"type": "node", "id": 4360144593, "lat": 26.7312461, "lon": 88.4342434}, {"type": "node", "id": 4360144594, "lat": 26.7312355, "lon": 88.4347377}, {"type": "node", "id": 4360144595, "lat": 26.7318041, "lon": 88.4347733}, {"type": "node", "id": 5379988472, "lat": 26.7021234, "lon": 88.4162091, "tags": {"addr:street": "Station Feeder Road", "amenity": "restaurant", "name": "Guha Pan Ghar"}}, {"type": "node", "id": 5380057409, "lat": 26.6981531, "lon": 88.4148778, "tags": {"amenity": "pharmacy", "healthcare": "pharmacy", "name": "Chemist"}}, {"type": "node", "id": 5380057410, "lat": 26.6993422, "lon": 88.4170008, "tags": {"addr:city": "Siliguri", "addr:street": "Shaktigarh Road Number 1", "amenity": "pharmacy", "drive_through": "no", "healthcare": "pharmacy", "name": "Chemist"}}, {"type": "node", "id": 5380066083, "lat": 26.6998394, "lon": 88.418635, "tags": {"addr:city": "Siliguri", "amenity": "pharmacy", "drive_through": "no", "healthcare": "pharmacy", "name": "\u09b8\u09bf\u0982 \u09ae\u09c7\u09a1\u09bf\u0995\u09c7\u09b2", "name:en": "Singh Medical"}}, {"type": "node", "id": 5383256961, "lat": 26.6958994, "lon": 88.4147733, "tags": {"addr:city": "Siliguri", "addr:street": "Shaktigarh", "amenity": "pharmacy", "drive_through": "no", "healthcare": "pharmacy", "name": "Chemist"}}, {"type": "node", "id": 5391447782, "lat": 26.7243747, "lon": 88.4139854, "tags": {"amenity": "restaurant", "cuisine": "breakfast;local;regional;tea", "diet:vegetarian": "yes", "name": "Satyam Shivam Hotel"}}, {"type": "node", "id": 5694861462, "lat": 26.6995467, "lon": 88.4182178, "tags": {"amenity": "pharmacy", "dispensing": "yes", "healthcare": "pharmacy", "name": "\u0994\u09b7\u09a7\u09be\u09b2\u09af\u09bc"}}, {"type": "node", "id": 5694861469, "lat": 26.7027715, "lon": 88.418837, "tags": {"amenity": "fast_food", "cuisine": "chinese;drinks", "name": "\u09b0\u09be\u09a7\u09bf\u0995\u09be \u09ab\u09be\u09b8\u09cd\u099f \u09ab\u09c1\u09a1", "name:en": "Radhika Fast Food"}}, {"type": "node", "id": 5694896102, "lat": 26.7031386, "lon": 88.419716, "tags": {"addr:floor": "G", "amenity": "fast_food", "check_date": "2025-11-27", "level": "0", "name": "Kolkata Arsalan Biryani", "name:bn": "\u0995\u09b2\u0995\u09be\u09a4\u09be \u0986\u09b0\u09b8\u09be\u09b2\u09be\u09a8 \u09ac\u09bf\u09b0\u09bf\u09df\u09be\u09a8\u09bf", "name:en": "Kolkata Arsalan Biryani"}}, {"type": "node", "id": 5694896103, "lat": 26.7033651, "lon": 88.4201482, "tags": {"addr:floor": "G", "amenity": "pharmacy", "check_date": "2025-11-27", "dispensing": "yes", "healthcare": "pharmacy", "internet_access": "no", "level": "0", "name": "CareU", "payment:cards": "no", "payment:cash": "yes", "payment:credit_cards": "no", "payment:debit_cards": "no"}}, {"type": "node", "id": 6153595189, "lat": 26.7264595, "lon": 88.415153, "tags": {"addr:street": "Hill Cart Road", "amenity": "restaurant", "name": "Khana", "name:hi": "Khana Khajana"}}, {"type": "node", "id": 6514625569, "lat": 26.7555048, "lon": 88.4420103}, {"type": "node", "id": 6514625570, "lat": 26.7554994, "lon": 88.4425018}, {"type": "node", "id": 6514625571, "lat": 26.7556747, "lon": 88.4425042}, {"type": "node", "id": 6514625572, "lat": 26.7556801, "lon": 88.4420127}, {"type": "node", "id": 6594180386, "lat": 26.7080038, "lon": 88.4346119, "tags": {"amenity": "cafe", "cuisine": "tea", "name": "Jackie Dar Cabin", "name:bn": "\u099c\u09cd\u09af\u09be\u0995\u09bf \u09a6\u09be\u09b0 \u0995\u09cd\u09af\u09be\u09ac\u09bf\u09a8"}}, {"type": "node", "id": 6596125387, "lat": 26.7179016, "lon": 88.4296238, "tags": {"brand": "Amul", "name": "PC Saha", "shop": "convenience"}}, {"type": "node", "id": 6757279685, "lat": 26.707676, "lon": 88.4167589, "tags": {"addr:street": "Bardwan Road", "check_date": "2025-11-21", "name": "Reliance Smart", "name:ur": "\u0631\u06cc\u0644\u0627\u0626\u0646\u0633 \u0627\u0633\u0645\u0627\u0631\u0679", "shop": "department_store"}}, {"type": "node", "id": 6757279785, "lat": 26.7089205, "lon": 88.4173856, "tags": {"addr:street": "Burdwan Road", "name": "Vishal Megamart", "shop": "department_store"}}, {"type": "node", "id": 6757314887, "lat": 26.7519984, "lon": 88.4433387, "tags": {"addr:street": "Bypass Road", "name": "Salaka Departmental", "name:en": "Salaka Departmental Stoers", "shop": "department_store"}}, {"type": "node", "id": 6904615086, "lat": 26.7283118, "lon": 88.4183322, "tags": {"amenity": "cafe", "name": "MochaToons"}}, {"type": "node", "id": 7178551185, "lat": 26.7245556, "lon": 88.4087806, "tags": {"name": "Local vegetables market", "name:he": "\u05e9\u05d5\u05e7 \u05d9\u05e8\u05e7\u05d5\u05ea \u05d5\u05e4\u05d9\u05e8\u05d5\u05ea \u05de\u05e7\u05d5\u05de\u05d9", "shop": "convenience"}}, {"type": "node", "id": 8039894018, "lat": 26.7026886, "lon": 88.417144, "tags": {"addr:city": "Siliguri", "addr:city:ur": "\u0633\u0644\u06cc \u06af\u0648\u0691\u06cc", "addr:postcode": "734005", "addr:street": "Station Feeder Road", "addr:street:ur": "\u0627\u0633\u0679\u06cc\u0634\u0646 \u0641\u06cc\u0688\u0631 \u0631\u0648\u0688", "amenity": "fast_food", "brand": "Domino's", "brand:ks": "\u0688\u0648\u0645\u06cc\u0646\u0648\u0632", "brand:pa": "\u0a21\u0a4b\u0a2e\u0a40\u0a28\u0a4b\u0a1c\u0a3c", "brand:ur": "\u0688\u0648\u0645\u06cc\u0646\u0648\u0632", "brand:wikidata": "Q839466", "brand:wikipedia": "en:Domino's Pizza", "cuisine": "pizza", "name": "Domino's", "name:ks": "\u0688\u0648\u0645\u06cc\u0646\u0648\u0632", "name:pa": "\u0a21\u0a4b\u0a2e\u0a40\u0a28\u0a4b\u0a1c\u0a3c", "name:ur": "\u0688\u0648\u0645\u06cc\u0646\u0648\u0632", "takeaway": "yes"}}, {"type": "node", "id": 8075241802, "lat": 26.7383, "lon": 88.4342027, "tags": {"amenity": "restaurant", "brand": "Pizza Hut", "brand:wikidata": "Q191615", "brand:wikipedia": "en:Pizza Hut", "cuisine": "pizza", "name": "Pizza Hut"}}, {"type": "node", "id": 8167629800, "lat": 26.7036738, "lon": 88.4227722, "tags": {"amenity": "restaurant", "name": "Foodicated Restaurant"}}, {"type": "node", "id": 8167635922, "lat": 26.7056762, "lon": 88.4229387, "tags": {"amenity": "restaurant", "name": "Good Food Restaurant"}}, {"type": "node", "id": 8167647856, "lat": 26.707639, "lon": 88.4335474, "tags": {"amenity": "restaurant", "name": "Chai Haveli Restaurant & Cafe"}}, {"type": "node", "id": 8221514705, "lat": 26.7167519, "lon": 88.4253467, "tags": {"amenity": "restaurant", "name": "Tea and Butter Toast"}}, {"type": "node", "id": 8848459083, "lat": 26.7139107, "lon": 88.4249596, "tags": {"name": "Oil Seeds store", "shop": "convenience"}}, {"type": "node", "id": 8848509512, "lat": 26.7401266, "lon": 88.4352253, "tags": {"amenity": "cafe", "name": "Butter Toast"}}, {"type": "node", "id": 9331650068, "lat": 26.7177406, "lon": 88.4313427, "tags": {"addr:city": "Siliguri", "addr:postcode": "734001", "addr:street": "Sayed Mustafa Ali Road, Hakimpara", "amenity": "cafe", "name": "Cafe Bongtastic", "phone": "+919144116619"}}, {"type": "node", "id": 9578123633, "lat": 26.7349726, "lon": 88.413865}, {"type": "node", "id": 9578123634, "lat": 26.7363487, "lon": 88.4149211}, {"type": "node", "id": 9578123635, "lat": 26.7370147, "lon": 88.4158297}, {"type": "node", "id": 9578123636, "lat": 26.7371692, "lon": 88.4156138}, {"type": "node", "id": 9578123637, "lat": 26.7373345, "lon": 88.4150814}, {"type": "node", "id": 9578123638, "lat": 26.7377088, "lon": 88.4153563}, {"type": "node", "id": 9578123639, "lat": 26.7379309, "lon": 88.4144457}, {"type": "node", "id": 9578123640, "lat": 26.7382837, "lon": 88.4144028}, {"type": "node", "id": 9578123641, "lat": 26.7384376, "lon": 88.4135981}, {"type": "node", "id": 9578123642, "lat": 26.7387933, "lon": 88.4134505}, {"type": "node", "id": 9578123643, "lat": 26.7395868, "lon": 88.4133708}, {"type": "node", "id": 9578123644, "lat": 26.7399755, "lon": 88.4135357}, {"type": "node", "id": 9578123645, "lat": 26.7399623, "lon": 88.4135961}, {"type": "node", "id": 9578123646, "lat": 26.7430139, "lon": 88.4142304}, {"type": "node", "id": 9578123647, "lat": 26.7431002, "lon": 88.413759}, {"type": "node", "id": 9578123648, "lat": 26.7427834, "lon": 88.4135236}, {"type": "node", "id": 9578123649, "lat": 26.7428857, "lon": 88.4134211}, {"type": "node", "id": 9578123650, "lat": 26.7428672, "lon": 88.4129973}, {"type": "node", "id": 9578123651, "lat": 26.743002, "lon": 88.4122757}, {"type": "node", "id": 9578123652, "lat": 26.7432112, "lon": 88.4118905}, {"type": "node", "id": 9578123653, "lat": 26.7427993, "lon": 88.4112515}, {"type": "node", "id": 9578123654, "lat": 26.7411503, "lon": 88.4109145}, {"type": "node", "id": 9578123655, "lat": 26.740991, "lon": 88.4117407}, {"type": "node", "id": 9578123656, "lat": 26.7385394, "lon": 88.4112767}, {"type": "node", "id": 9578123657, "lat": 26.7378171, "lon": 88.4114832}, {"type": "node", "id": 9578123658, "lat": 26.7370782, "lon": 88.4118104}, {"type": "node", "id": 9578123659, "lat": 26.7365344, "lon": 88.4125775}, {"type": "node", "id": 9578123660, "lat": 26.7364326, "lon": 88.4124823}, {"type": "node", "id": 9578123661, "lat": 26.735944, "lon": 88.4131113}, {"type": "node", "id": 9578123662, "lat": 26.7359931, "lon": 88.4133889}, {"type": "node", "id": 9578123663, "lat": 26.7347833, "lon": 88.4133071}, {"type": "node", "id": 10253330194, "lat": 26.7265602, "lon": 88.4150889, "tags": {"amenity": "restaurant", "name": "Yatri"}}, {"type": "node", "id": 10855444106, "lat": 26.7154281, "lon": 88.4256832, "tags": {"amenity": "marketplace", "name": "Hong Kong Market"}}, {"type": "node", "id": 11218070118, "lat": 26.6850677, "lon": 88.4437992}, {"type": "node", "id": 11218070119, "lat": 26.6848945, "lon": 88.4438199}, {"type": "node", "id": 11218070120, "lat": 26.6848915, "lon": 88.443789}, {"type": "node", "id": 11218070121, "lat": 26.6850647, "lon": 88.4437683}, {"type": "node", "id": 11226910487, "lat": 26.6828429, "lon": 88.4427854, "tags": {"amenity": "restaurant", "name": "Food Track", "operator": "Griham; IRCTC", "takeaway": "yes"}}, {"type": "node", "id": 11226915366, "lat": 26.6828786, "lon": 88.4437737, "tags": {"amenity": "fast_food", "cuisine": "tibetan;drinks", "name": "Momo Express"}}, {"type": "node", "id": 11226916179, "lat": 26.6828467, "lon": 88.4430671, "tags": {"level": "0", "name": "Modular Catering Stall", "operator": "Sunil Kumar Meena", "ref": "2", "shop": "convenience"}}, {"type": "node", "id": 11227274428, "lat": 26.6947287, "lon": 88.4490663, "tags": {"amenity": "fast_food", "contact:mobile": "+91 7479 012356", "cuisine": "regional", "description": "A small eatery right outside the 2nd Campus of Siliguri Government Polytechnic. Offers great home-like Bengali Cuisine at very cheap prices. They also operate the canteen inside the polytechnic.", "name": "Shiuli Fast Food", "outdoor_seating": "yes", "payment:cash": "yes"}}, {"type": "node", "id": 11281633985, "lat": 26.6844381, "lon": 88.4439568}, {"type": "node", "id": 11281633986, "lat": 26.6844571, "lon": 88.4441505}, {"type": "node", "id": 11281633987, "lat": 26.6844295, "lon": 88.4441539}, {"type": "node", "id": 11281633988, "lat": 26.6844105, "lon": 88.4439601}, {"type": "node", "id": 11332608677, "lat": 26.7093259, "lon": 88.4292029}, {"type": "node", "id": 11467796562, "lat": 26.7035716, "lon": 88.444672, "tags": {"amenity": "restaurant", "check_date": "2025-03-06", "contact:mobile": "+91 97498 46461", "cuisine": "chinese;coffee_shop;indian;regional", "level": "0", "name": "Cafe King", "opening_hours": "Mo-Su 08:00-00:00", "takeaway": "yes", "wheelchair": "limited"}}, {"type": "node", "id": 11659700275, "lat": 26.7149588, "lon": 88.4227729, "tags": {"addr:city": "Siliguri", "amenity": "restaurant", "cuisine": "momo", "diet:non-vegetarian": "yes", "diet:vegetarian": "yes", "name": "Momo Hut"}}, {"type": "node", "id": 12015358283, "lat": 26.7369375, "lon": 88.4119935}, {"type": "node", "id": 12015358716, "lat": 26.7348307, "lon": 88.4134942}, {"type": "node", "id": 12015358786, "lat": 26.74007, "lon": 88.4136306}, {"type": "node", "id": 12015358787, "lat": 26.7401865, "lon": 88.4136608}, {"type": "node", "id": 12015358788, "lat": 26.7404111, "lon": 88.4137065}, {"type": "node", "id": 12015358817, "lat": 26.7423675, "lon": 88.4141273}, {"type": "node", "id": 12015359166, "lat": 26.7353654, "lon": 88.4133352}, {"type": "node", "id": 12015359167, "lat": 26.7362206, "lon": 88.4130201}, {"type": "node", "id": 12015359168, "lat": 26.7364446, "lon": 88.4127492}, {"type": "node", "id": 12015359169, "lat": 26.7363093, "lon": 88.4126392}, {"type": "node", "id": 12015359170, "lat": 26.73821, "lon": 88.4113437}, {"type": "node", "id": 12015359171, "lat": 26.7390987, "lon": 88.4113973}, {"type": "node", "id": 12015359172, "lat": 26.7397371, "lon": 88.4115127}, {"type": "node", "id": 12015359173, "lat": 26.7429992, "lon": 88.4115325}, {"type": "node", "id": 12015359174, "lat": 26.7430786, "lon": 88.4119351}, {"type": "node", "id": 12015359175, "lat": 26.7430582, "lon": 88.4122382}, {"type": "node", "id": 12015359176, "lat": 26.7429373, "lon": 88.4130328}, {"type": "node", "id": 12015359177, "lat": 26.7428217, "lon": 88.413409}, {"type": "node", "id": 12015359178, "lat": 26.7390424, "lon": 88.4134056}, {"type": "node", "id": 12015359179, "lat": 26.7365728, "lon": 88.415473}, {"type": "node", "id": 12015359180, "lat": 26.7365141, "lon": 88.4154113}, {"type": "node", "id": 12015359181, "lat": 26.7364853, "lon": 88.4152731}, {"type": "node", "id": 12015359182, "lat": 26.7367153, "lon": 88.414907}, {"type": "node", "id": 12015359183, "lat": 26.7364769, "lon": 88.4146804}, {"type": "node", "id": 12067397159, "lat": 26.703985, "lon": 88.4459271, "tags": {"check_date": "2026-03-02", "contact:mobile": "+91 89003 23504", "name": "N Saha Store", "name:bn": "\u098f\u09a8 \u09b8\u09be\u09b9\u09be \u09b8\u09cd\u099f\u09cb\u09b0", "shop": "convenience"}}, {"type": "node", "id": 12067397164, "lat": 26.7039831, "lon": 88.4458977, "tags": {"check_date": "2026-03-02", "name": "Kumud Variety Stores", "name:bn": "\u0995\u09c1\u09ae\u09c1\u09a6 \u09ad\u09cd\u09af\u09be\u09b0\u09be\u0987\u099f\u09bf \u09b8\u09cd\u099f\u09cb\u09b0\u09cd\u09b8", "note": "\"Dashokarma Bhandar\". Find definition, closest possible tag/s.", "shop": "convenience"}}, {"type": "node", "id": 12108831132, "lat": 26.7236055, "lon": 88.4144506, "tags": {"amenity": "restaurant", "cuisine": "chinese;coffee_shop;ice_cream;indian;regional", "name": "Food Track", "takeaway": "yes"}}, {"type": "node", "id": 12289904843, "lat": 26.6962135, "lon": 88.4252017, "tags": {"air_conditioning": "no", "amenity": "cafe", "brand": "Bombay Cutting Chai", "cuisine": "coffee; regional; chinese; tibetan; tea", "indoor_seating": "yes", "level": "0", "name": "Bombay Cutting Chai", "outdoor_seating": "yes", "smoking": "outside", "takeaway": "yes", "wheelchair": "no"}}, {"type": "node", "id": 12408686140, "lat": 26.7046906, "lon": 88.4444166, "tags": {"check_date": "2025-03-06", "level": "0", "name": "Baba Ganesh Bhandar", "shop": "convenience", "wheelchair": "yes"}}, {"type": "node", "id": 12408686178, "lat": 26.70453, "lon": 88.4443478, "tags": {"check_date": "2025-03-06", "shop": "convenience"}}, {"type": "node", "id": 12438412759, "lat": 26.7282952, "lon": 88.413318, "tags": {"amenity": "cafe", "name": "Chai Box"}}, {"type": "node", "id": 12438442649, "lat": 26.7276459, "lon": 88.4169012, "tags": {"amenity": "fast_food", "name": "Sriyana"}}, {"type": "node", "id": 12438462676, "lat": 26.727725, "lon": 88.4170275, "tags": {"amenity": "fast_food", "name": "Rolltash"}}, {"type": "node", "id": 12438465199, "lat": 26.7281561, "lon": 88.417515, "tags": {"amenity": "restaurant", "name": "16 Meraki Delights"}}, {"type": "node", "id": 12438473147, "lat": 26.7274396, "lon": 88.4162597, "tags": {"amenity": "restaurant", "name": "Noodle Wok"}}, {"type": "node", "id": 12438481352, "lat": 26.7279661, "lon": 88.4173037, "tags": {"amenity": "cafe", "name": "Marwana"}}, {"type": "node", "id": 12438482422, "lat": 26.7278304, "lon": 88.4171733, "tags": {"amenity": "fast_food", "name": "Fresh Dosa"}}, {"type": "node", "id": 12438484148, "lat": 26.7275654, "lon": 88.4167458, "tags": {"amenity": "fast_food", "name": "Food fusion"}}, {"type": "node", "id": 12438484624, "lat": 26.727961, "lon": 88.41717, "tags": {"amenity": "cafe", "name": "Bhoj Adaa Cafe and Restaurant"}}, {"type": "node", "id": 12438485749, "lat": 26.7262668, "lon": 88.4153838, "tags": {"amenity": "restaurant", "name": "Khana Khajana"}}, {"type": "node", "id": 12451095728, "lat": 26.7174328, "lon": 88.4206047}, {"type": "node", "id": 12451095729, "lat": 26.7176268, "lon": 88.420598}, {"type": "node", "id": 12451095730, "lat": 26.7178287, "lon": 88.4210204}, {"type": "node", "id": 12451095731, "lat": 26.7176232, "lon": 88.4211887}, {"type": "node", "id": 12451095732, "lat": 26.717443, "lon": 88.4207536}, {"type": "node", "id": 12451095770, "lat": 26.717785, "lon": 88.4208535}, {"type": "node", "id": 12451095771, "lat": 26.7178413, "lon": 88.4209755}, {"type": "node", "id": 12451095772, "lat": 26.7177377, "lon": 88.4206758}, {"type": "node", "id": 12451095773, "lat": 26.7178143, "lon": 88.4206456}, {"type": "node", "id": 12451095774, "lat": 26.7180287, "lon": 88.4206114}, {"type": "node", "id": 12451095775, "lat": 26.7181066, "lon": 88.4207938}, {"type": "node", "id": 12462963102, "lat": 26.6854171, "lon": 88.4431111, "tags": {"amenity": "restaurant", "cuisine": "indian", "name": "Shivshankar Hotel"}}, {"type": "node", "id": 12521065696, "lat": 26.6988569, "lon": 88.4395263, "tags": {"name": "Sri Guru Bhandar", "shop": "convenience"}}, {"type": "node", "id": 12521111704, "lat": 26.7011843, "lon": 88.4402332, "tags": {"name": "Laxmi Store", "shop": "convenience"}}, {"type": "node", "id": 12521111705, "lat": 26.701109, "lon": 88.4402319, "tags": {"name": "Sankar Store", "shop": "convenience"}}, {"type": "node", "id": 12521111710, "lat": 26.7016699, "lon": 88.4405267, "tags": {"name": "Sai Variety Store", "shop": "convenience"}}, {"type": "node", "id": 12521111711, "lat": 26.7016813, "lon": 88.4405635, "tags": {"amenity": "fast_food", "name": "Ishan Piyush Fast Food"}}, {"type": "node", "id": 12521111712, "lat": 26.701588, "lon": 88.4405355, "tags": {"shop": "convenience"}}, {"type": "node", "id": 12521111713, "lat": 26.7016814, "lon": 88.4411647, "tags": {"name": "Sadhana Tiffin Corner", "shop": "convenience"}}, {"type": "node", "id": 12521111715, "lat": 26.7016796, "lon": 88.4410326, "tags": {"addr:floor": "G", "amenity": "fast_food", "check_date": "2025-09-08", "cuisine": "nepali", "internet_access": "no", "level": "0", "name": "Taste of Sikkim", "payment:cards": "no", "payment:cash": "yes", "payment:credit_cards": "no", "payment:debit_cards": "no", "payment:upi": "yes"}}, {"type": "node", "id": 12521111716, "lat": 26.7016796, "lon": 88.4409722, "tags": {"addr:floor": "G", "amenity": "restaurant", "check_date": "2025-09-08", "internet_access": "no", "level": "0", "name": "The Krishna Villa'z Cafe & Restaurant", "payment:cards": "no", "payment:cash": "yes", "payment:credit_cards": "no", "payment:debit_cards": "no", "payment:upi": "yes"}}, {"type": "node", "id": 12521111717, "lat": 26.7024523, "lon": 88.4418708, "tags": {"name": "Sangita Store", "shop": "convenience"}}, {"type": "node", "id": 12521111754, "lat": 26.7035544, "lon": 88.4446278, "tags": {"amenity": "pharmacy", "check_date": "2025-03-06", "dispensing": "yes", "name": "Priya Medical Hall"}}, {"type": "node", "id": 12521111756, "lat": 26.7046374, "lon": 88.4462205, "tags": {"shop": "convenience"}}, {"type": "node", "id": 12521111758, "lat": 26.7043663, "lon": 88.4439278, "tags": {"check_date": "2025-03-06", "name": "Dutta Brothers", "shop": "convenience"}}, {"type": "node", "id": 12521111760, "lat": 26.7044436, "lon": 88.4429649, "tags": {"name": "Yogmaya Bhandar", "shop": "convenience"}}, {"type": "node", "id": 12521111776, "lat": 26.7046076, "lon": 88.441499, "tags": {"name": "Chandan Bhamo", "shop": "convenience"}}, {"type": "node", "id": 12521111778, "lat": 26.7047431, "lon": 88.4413556, "tags": {"name": "Subhash Stores", "shop": "convenience"}}, {"type": "node", "id": 12521111780, "lat": 26.704776, "lon": 88.4397054, "tags": {"name": "Santoshi Stores", "shop": "convenience"}}, {"type": "node", "id": 12521111782, "lat": 26.7051217, "lon": 88.4387867, "tags": {"name": "Param Bhandar", "shop": "convenience"}}, {"type": "node", "id": 12521111783, "lat": 26.7049731, "lon": 88.4388363, "tags": {"name": "Puja Store", "shop": "convenience"}}, {"type": "node", "id": 12521111784, "lat": 26.7047736, "lon": 88.4387572, "tags": {"name": "Bishnu Store", "shop": "convenience"}}, {"type": "node", "id": 12521111788, "lat": 26.7062167, "lon": 88.4382436, "tags": {"name": "Gopal Bhandar", "shop": "convenience"}}, {"type": "node", "id": 12521111789, "lat": 26.7062184, "lon": 88.4381517, "tags": {"amenity": "fast_food", "name": "Momo Amore"}}, {"type": "node", "id": 12521111792, "lat": 26.706778, "lon": 88.4381195, "tags": {"amenity": "pharmacy", "dispensing": "yes", "name": "Medlife Pharmacy"}}, {"type": "node", "id": 12521111793, "lat": 26.7068978, "lon": 88.4381195, "tags": {"amenity": "cafe", "name": "Tea and Talk Cafe"}}, {"type": "node", "id": 12521111794, "lat": 26.7069466, "lon": 88.4381188, "tags": {"name": "Mani Store", "shop": "convenience"}}, {"type": "node", "id": 12521111795, "lat": 26.7071117, "lon": 88.4381844, "tags": {"amenity": "fast_food", "name": "Ohh! Sandwich"}}, {"type": "node", "id": 12521111796, "lat": 26.7074198, "lon": 88.4381487, "tags": {"name": "Madan Bhandar", "shop": "convenience"}}, {"type": "node", "id": 12521111802, "lat": 26.7074758, "lon": 88.4374252, "tags": {"name": "Joy Puja Bhandar", "shop": "convenience"}}, {"type": "node", "id": 12521111803, "lat": 26.707368, "lon": 88.4373149, "tags": {"name": "Saha Store", "shop": "convenience"}}, {"type": "node", "id": 12521111804, "lat": 26.7073563, "lon": 88.436948, "tags": {"name": "The Blissful Bites Bakery", "shop": "bakery", "short_name": "The B3"}}, {"type": "node", "id": 12521111805, "lat": 26.7074393, "lon": 88.4369246, "tags": {"amenity": "cafe", "name": "The Bihari Bhaiya Tea Cafe"}}, {"type": "node", "id": 12521111807, "lat": 26.7074267, "lon": 88.4362809, "tags": {"amenity": "fast_food", "name": "Tawa Aur Tandoor"}}, {"type": "node", "id": 12521111809, "lat": 26.7073722, "lon": 88.4358055, "tags": {"shop": "convenience"}}, {"type": "node", "id": 12521111811, "lat": 26.7073662, "lon": 88.4351429, "tags": {"name": "Deb's Departmental Store", "shop": "convenience"}}, {"type": "node", "id": 12521111813, "lat": 26.7077208, "lon": 88.4351315, "tags": {"amenity": "fast_food", "name": "Joy Maa Tara Momo House"}}, {"type": "node", "id": 12521111816, "lat": 26.7078886, "lon": 88.4351245, "tags": {"name": "Biva Store", "shop": "convenience"}}, {"type": "node", "id": 12521111838, "lat": 26.7078659, "lon": 88.4344857, "tags": {"name": "Maa Boradi Bhandar", "shop": "convenience"}}, {"type": "node", "id": 12521111840, "lat": 26.7078153, "lon": 88.4343095, "tags": {"amenity": "pharmacy", "dispensing": "yes", "name": "Tripti Medical"}}, {"type": "node", "id": 12521111842, "lat": 26.707746, "lon": 88.4341599, "tags": {"name": "Raju Stores", "shop": "convenience"}}, {"type": "node", "id": 12521111843, "lat": 26.7077388, "lon": 88.433893, "tags": {"name": "Bhawal Stores", "shop": "convenience"}}, {"type": "node", "id": 12521111850, "lat": 26.7073557, "lon": 88.4328939, "tags": {"name": "Gita Store", "shop": "convenience"}}, {"type": "node", "id": 12548895941, "lat": 26.7013358, "lon": 88.4387847, "tags": {"shop": "convenience"}}, {"type": "node", "id": 12548895952, "lat": 26.698936, "lon": 88.4393855, "tags": {"amenity": "fast_food", "name": "Urmi Tiffin Corner"}}, {"type": "node", "id": 12548895954, "lat": 26.6989527, "lon": 88.4393882, "tags": {"name": "Gita Variety Store", "shop": "convenience"}}, {"type": "node", "id": 12548895955, "lat": 26.6989036, "lon": 88.4404242, "tags": {"name": "Ganesh Variety Store", "shop": "convenience"}}, {"type": "node", "id": 12548895962, "lat": 26.7038392, "lon": 88.4455318, "tags": {"check_date": "2025-03-06", "shop": "convenience"}}, {"type": "node", "id": 12548895963, "lat": 26.7037655, "lon": 88.4450872, "tags": {"check_date": "2025-03-06", "shop": "convenience"}}, {"type": "node", "id": 12548895964, "lat": 26.7035957, "lon": 88.4446046, "tags": {"check_date": "2025-03-06", "name": "The Grocery Meet", "shop": "convenience"}}, {"type": "node", "id": 12548895965, "lat": 26.703693, "lon": 88.4444126, "tags": {"check_date": "2025-03-06", "shop": "convenience"}}, {"type": "node", "id": 12548895967, "lat": 26.7034992, "lon": 88.4433059, "tags": {"amenity": "fast_food", "name": "Boithok"}}, {"type": "node", "id": 12548895970, "lat": 26.7034468, "lon": 88.4420664, "tags": {"amenity": "cafe", "name": "Ankita's Cafe"}}, {"type": "node", "id": 12548895971, "lat": 26.7032658, "lon": 88.4421235, "tags": {"amenity": "fast_food", "name": "Tele Bhaja"}}, {"type": "node", "id": 12548895972, "lat": 26.7032312, "lon": 88.4421343, "tags": {"amenity": "cafe", "name": "Sampa's Cafe"}}, {"type": "node", "id": 12548895973, "lat": 26.7030658, "lon": 88.4423165, "tags": {"name": "Purbasha Store", "shop": "convenience"}}, {"type": "node", "id": 12548895974, "lat": 26.7029723, "lon": 88.4422109, "tags": {"amenity": "pharmacy", "dispensing": "yes", "name": "Rina Medical Hall"}}, {"type": "node", "id": 12548895976, "lat": 26.7028579, "lon": 88.4419182, "tags": {"amenity": "cafe", "name": "Addaye Tumi"}}, {"type": "node", "id": 12548895977, "lat": 26.7029586, "lon": 88.4418518, "tags": {"amenity": "cafe", "name": "Bombay Cutting Chai"}}, {"type": "node", "id": 12548895978, "lat": 26.7031569, "lon": 88.4415648, "tags": {"name": "Subham Store", "shop": "convenience"}}, {"type": "node", "id": 12548895979, "lat": 26.703215, "lon": 88.441532, "tags": {"name": "Chandana Store", "shop": "convenience"}}, {"type": "node", "id": 12548895980, "lat": 26.7025896, "lon": 88.4418156, "tags": {"name": "Baba Loknath Pan Ghar", "shop": "convenience"}}, {"type": "node", "id": 12548895981, "lat": 26.7032964, "lon": 88.4413022, "tags": {"amenity": "cafe", "name": "Cha-Er-Kotha"}}, {"type": "node", "id": 12548895982, "lat": 26.7032787, "lon": 88.4412566, "tags": {"amenity": "fast_food", "name": "Sanyal Fast Food Corner"}}, {"type": "node", "id": 12548895983, "lat": 26.7032603, "lon": 88.4412093, "tags": {"amenity": "fast_food", "name": "Wok & Roll"}}, {"type": "node", "id": 12548895984, "lat": 26.7032442, "lon": 88.4411679, "tags": {"name": "Joy Maa Tara Bhandar", "shop": "convenience"}}, {"type": "node", "id": 12548895985, "lat": 26.7032272, "lon": 88.441124, "tags": {"amenity": "cafe", "name": "Sip n Spice"}}, {"type": "node", "id": 12548895986, "lat": 26.7061772, "lon": 88.4404416, "tags": {"shop": "convenience"}}, {"type": "node", "id": 12548895990, "lat": 26.7042932, "lon": 88.4399736, "tags": {"name": "Paul Bhandar", "shop": "convenience"}}, {"type": "node", "id": 12548895991, "lat": 26.7028675, "lon": 88.4403779, "tags": {"amenity": "cafe", "name": "Baithak Khana Cafe"}}, {"type": "node", "id": 12548895992, "lat": 26.7025896, "lon": 88.4399287, "tags": {"check_date": "2025-09-08", "name": "Sri Sri Riddhi Siddhi Store", "shop": "convenience"}}, {"type": "node", "id": 12548895994, "lat": 26.7020696, "lon": 88.4399729, "tags": {"name": "Shilpi Store", "shop": "convenience"}}, {"type": "node", "id": 12548895995, "lat": 26.7016343, "lon": 88.4399642, "tags": {"amenity": "pharmacy", "dispensing": "yes", "name": "Medicine Mart"}}, {"type": "node", "id": 12548895997, "lat": 26.7015407, "lon": 88.4398536, "tags": {"name": "Runu Pan Ghar", "shop": "convenience"}}, {"type": "node", "id": 12548895998, "lat": 26.7014843, "lon": 88.439869, "tags": {"name": "Baba Loknath Pan Ghar", "shop": "convenience"}}, {"type": "node", "id": 12548937795, "lat": 26.7014184, "lon": 88.437913, "tags": {"name": "Nirupama Bhandar", "shop": "convenience"}}, {"type": "node", "id": 12548937797, "lat": 26.7046532, "lon": 88.4382027, "tags": {"shop": "convenience"}}, {"type": "node", "id": 12548937798, "lat": 26.7047335, "lon": 88.4382382, "tags": {"name": "Dutta Pan Ghar", "shop": "convenience"}}, {"type": "node", "id": 12548937815, "lat": 26.7036876, "lon": 88.4383924, "tags": {"name": "SB Enterprise", "shop": "convenience"}}, {"type": "node", "id": 12548937817, "lat": 26.7040176, "lon": 88.4377259, "tags": {"brand": "Ration Shop", "brand:wikidata": "Q60901", "name": "Ration Shop", "operator": "Public Distribution System", "operator:type": "public", "operator:wikidata": "Q60901", "shop": "convenience"}}, {"type": "node", "id": 12548937836, "lat": 26.706884, "lon": 88.4373531, "tags": {"name": "Maa Mahamaya Bhandar", "shop": "convenience"}}, {"type": "node", "id": 12548937843, "lat": 26.7044711, "lon": 88.4351637, "tags": {"shop": "convenience"}}, {"type": "node", "id": 12548937844, "lat": 26.7045643, "lon": 88.4351983, "tags": {"shop": "convenience"}}, {"type": "node", "id": 12548937847, "lat": 26.7039086, "lon": 88.4346461, "tags": {"name": "Arun Kundu", "shop": "convenience"}}, {"type": "node", "id": 12548937848, "lat": 26.7039602, "lon": 88.434573, "tags": {"amenity": "pharmacy", "name": "New Kalpataru Medical Hall"}}, {"type": "node", "id": 12548937864, "lat": 26.7044843, "lon": 88.4338354, "tags": {"name": "New Paul Stores", "shop": "convenience"}}, {"type": "node", "id": 12560639563, "lat": 26.7065438, "lon": 88.4439564, "tags": {"name": "Joy Guru Variety Stores", "shop": "convenience"}}, {"type": "node", "id": 12560639569, "lat": 26.7052644, "lon": 88.4441667, "tags": {"amenity": "pharmacy", "dispensing": "yes", "healthcare": "pharmacy", "level": "0", "name": "Mou Medical Stores", "wheelchair": "yes"}}, {"type": "node", "id": 12560639570, "lat": 26.7065125, "lon": 88.4426682, "tags": {"level": "0", "name": "Shiv Shakti General Store Grocery Shop", "shop": "convenience", "wheelchair": "yes"}}, {"type": "node", "id": 12560639571, "lat": 26.7082845, "lon": 88.4418687, "tags": {"level": "0", "name": "Paul Store", "shop": "convenience"}}, {"type": "node", "id": 12560639575, "lat": 26.7065086, "lon": 88.4427354, "tags": {"level": "0", "name": "Neelkantha Glosarry & Stationery", "shop": "convenience", "wheelchair": "yes"}}, {"type": "node", "id": 12560639581, "lat": 26.7061084, "lon": 88.4441537, "tags": {"level": "0", "name": "Choton Pan Ghor", "shop": "convenience", "wheelchair": "yes"}}, {"type": "node", "id": 12560639589, "lat": 26.7050381, "lon": 88.4450448, "tags": {"shop": "convenience"}}, {"type": "node", "id": 12560639600, "lat": 26.705901, "lon": 88.4440611, "tags": {"level": "0", "name": "Kalpana Store", "shop": "convenience", "wheelchair": "yes"}}, {"type": "node", "id": 12560658101, "lat": 26.7064712, "lon": 88.443747, "tags": {"amenity": "fast_food", "cuisine": "chinese;indian;regional", "indoor_seating": "yes", "level": "0", "name": "Food Point", "takeaway": "yes"}}, {"type": "node", "id": 12560658102, "lat": 26.7065577, "lon": 88.4433327, "tags": {"level": "0", "name": "Grocery For You", "shop": "convenience", "wheelchair": "limited"}}, {"type": "node", "id": 12561205012, "lat": 26.6913245, "lon": 88.4383528, "tags": {"level": "0", "name": "Dipti Variety Store", "shop": "convenience", "wheelchair": "yes"}}, {"type": "node", "id": 12561205013, "lat": 26.6931367, "lon": 88.438593, "tags": {"name": "Sanjib Store", "shop": "convenience"}}, {"type": "node", "id": 12561205015, "lat": 26.6988985, "lon": 88.4393793, "tags": {"name": "Minu Store", "shop": "convenience"}}, {"type": "node", "id": 12561205018, "lat": 26.692568, "lon": 88.4384997, "tags": {"amenity": "fast_food", "cuisine": "regional;indian;chinese", "indoor_seating": "yes", "name": "Radhika Fast Food", "takeaway": "yes"}}, {"type": "node", "id": 12561205019, "lat": 26.6937266, "lon": 88.4387215, "tags": {"name": "Gopal Store Stationery Shop", "shop": "convenience"}}, {"type": "node", "id": 12561205025, "lat": 26.6920259, "lon": 88.4384274, "tags": {"amenity": "pharmacy", "dispensing": "yes", "healthcare": "pharmacy", "name": "Omkar Medical Clinic"}}, {"type": "node", "id": 12561205028, "lat": 26.6911438, "lon": 88.4383485, "tags": {"amenity": "restaurant", "cuisine": "indian;regional", "name": "Indian Curry Restaurant", "takeaway": "yes", "wheelchair": "yes"}}, {"type": "node", "id": 12561205031, "lat": 26.6959978, "lon": 88.4390539, "tags": {"name": "Sarkar Stores", "shop": "convenience"}}, {"type": "node", "id": 12561205032, "lat": 26.6920518, "lon": 88.4384289, "tags": {"name": "Neha Stores", "shop": "convenience"}}, {"type": "node", "id": 12561205038, "lat": 26.6982116, "lon": 88.439218, "tags": {"name": "Maya Bhander", "shop": "convenience"}}, {"type": "node", "id": 12561205045, "lat": 26.6968799, "lon": 88.4392691, "tags": {"amenity": "pharmacy", "brand": "Pradhan Mantri Bharatiya Janaushadhi Pariyojana Kendra", "dispensing": "yes", "healthcare": "pharmacy", "level": "0", "name": "Bharatiya Jan Aushadhi Kendra", "official_name": "Pradhan Mantri Bharatiya Janaushadhi Pariyojana Kendra", "wheelchair": "yes"}}, {"type": "node", "id": 12568651454, "lat": 26.6894405, "lon": 88.4382684, "tags": {"amenity": "fast_food", "name": "Shyam Paw Bhaji"}}, {"type": "node", "id": 12568651500, "lat": 26.7046227, "lon": 88.4441364, "tags": {"check_date": "2025-03-06", "shop": "convenience"}}, {"type": "node", "id": 12568651502, "lat": 26.7046356, "lon": 88.4419775, "tags": {"name": "Krishna Mobile", "shop": "convenience"}}, {"type": "node", "id": 12568651504, "lat": 26.7046742, "lon": 88.4411857, "tags": {"shop": "convenience"}}, {"type": "node", "id": 12568651505, "lat": 26.7047215, "lon": 88.4406529, "tags": {"name": "Baba Lokenath Pan Ghar", "shop": "convenience"}}, {"type": "node", "id": 12568651506, "lat": 26.7048198, "lon": 88.4405939, "tags": {"name": "Laxmi Bhandar", "shop": "convenience"}}, {"type": "node", "id": 12568651567, "lat": 26.7065168, "lon": 88.4387666, "tags": {"amenity": "fast_food", "name": "Food Thrills"}}, {"type": "node", "id": 12568651568, "lat": 26.7064479, "lon": 88.4387244, "tags": {"name": "Nilmoni Store", "shop": "convenience"}}, {"type": "node", "id": 12568651569, "lat": 26.7064958, "lon": 88.438662, "tags": {"name": "Rainbow Store", "shop": "convenience"}}, {"type": "node", "id": 12568651619, "lat": 26.7080676, "lon": 88.4350195, "tags": {"name": "SK Saha Chowdhury", "shop": "convenience"}}, {"type": "node", "id": 12568651621, "lat": 26.7087614, "lon": 88.4341865, "tags": {"amenity": "fast_food", "name": "Momo Wood"}}, {"type": "node", "id": 12568651622, "lat": 26.7088619, "lon": 88.4341988, "tags": {"amenity": "pharmacy", "dispensing": "yes", "name": "Tripti Medizone"}}, {"type": "node", "id": 12568651623, "lat": 26.7091548, "lon": 88.4340278, "tags": {"amenity": "cafe", "name": "Tripti Tea"}}, {"type": "node", "id": 12568651626, "lat": 26.709626, "lon": 88.4340875, "tags": {"amenity": "fast_food", "name": "Icche Holo Tai"}}, {"type": "node", "id": 12568651628, "lat": 26.7096813, "lon": 88.4340741, "tags": {"name": "Mamata Store", "shop": "convenience"}}, {"type": "node", "id": 12568651629, "lat": 26.7086481, "lon": 88.433019, "tags": {"air_conditioning": "yes", "brand": "Arambagh Foodmart", "brand:wikidata": "Q130550508", "name": "Arambagh Foodmart", "name:bn": "\u0986\u09b0\u09be\u09ae\u09ac\u09be\u0998 \u09ab\u09c1\u09a1\u09ae\u09be\u09b0\u09cd\u099f", "name:en": "Arambagh Foodmart", "payment:cash": "yes", "shop": "convenience"}}, {"type": "node", "id": 12568651633, "lat": 26.708802, "lon": 88.4314763, "tags": {"amenity": "fast_food", "brand": "Wow! Momo", "brand:wikidata": "Q8037446", "cuisine": "momo", "name": "Wow! Momo", "takeaway": "yes"}}, {"type": "node", "id": 12568651781, "lat": 26.709319, "lon": 88.4299569}, {"type": "node", "id": 12568651782, "lat": 26.7090966, "lon": 88.4299574}, {"type": "node", "id": 12568651783, "lat": 26.7095298, "lon": 88.4303733}, {"type": "node", "id": 12568651784, "lat": 26.7095478, "lon": 88.4300045}, {"type": "node", "id": 12568651797, "lat": 26.7091237, "lon": 88.4303418}, {"type": "node", "id": 12568651804, "lat": 26.7092561, "lon": 88.4288947}, {"type": "node", "id": 12568651805, "lat": 26.7093208, "lon": 88.4291174}, {"type": "node", "id": 12568651806, "lat": 26.7092938, "lon": 88.4289584}, {"type": "node", "id": 12568651807, "lat": 26.7092872, "lon": 88.428772}, {"type": "node", "id": 12568651808, "lat": 26.709443, "lon": 88.428713}, {"type": "node", "id": 12568651809, "lat": 26.7096197, "lon": 88.4286433}, {"type": "node", "id": 12568651810, "lat": 26.7097856, "lon": 88.4285467}, {"type": "node", "id": 12568651811, "lat": 26.7097525, "lon": 88.4292576}, {"type": "node", "id": 12610035188, "lat": 26.7069637, "lon": 88.4300454, "tags": {"shop": "convenience"}}, {"type": "node", "id": 12610035193, "lat": 26.7081027, "lon": 88.4351337, "tags": {"amenity": "fast_food", "cuisine": "fried_food", "name": "Komoler"}}, {"type": "node", "id": 12610035194, "lat": 26.7082033, "lon": 88.4351306, "tags": {"amenity": "fast_food", "name": "Dona Restaurant"}}, {"type": "node", "id": 12610035199, "lat": 26.7082808, "lon": 88.4353876, "tags": {"name": "Vrindavan Grocery Mart", "shop": "convenience"}}, {"type": "node", "id": 12610071807, "lat": 26.7083977, "lon": 88.4357417, "tags": {"shop": "convenience"}}, {"type": "node", "id": 12610071811, "lat": 26.7083387, "lon": 88.4360592, "tags": {"name": "Vivek Store", "shop": "convenience"}}, {"type": "node", "id": 12610071812, "lat": 26.708416, "lon": 88.4360448, "tags": {"amenity": "pharmacy", "dispensing": "yes", "name": "Mediguide Chemist & Druggists"}}, {"type": "node", "id": 12610071815, "lat": 26.7085423, "lon": 88.4360993, "tags": {"name": "Smoke Villa", "shop": "convenience"}}, {"type": "node", "id": 12610071816, "lat": 26.7085573, "lon": 88.4361462, "tags": {"amenity": "fast_food", "name": "Hotel New"}}, {"type": "node", "id": 12610071819, "lat": 26.708708, "lon": 88.4365035, "tags": {"amenity": "restaurant", "name": "Star Haji Biryani"}}, {"type": "node", "id": 12610071822, "lat": 26.708823, "lon": 88.4368853, "tags": {"name": "All in One", "shop": "convenience"}}, {"type": "node", "id": 12610071823, "lat": 26.7088497, "lon": 88.4369762, "tags": {"amenity": "pharmacy", "dispensing": "yes", "name": "Albert Medical Stores"}}, {"type": "node", "id": 12610071824, "lat": 26.7087776, "lon": 88.4369846, "tags": {"name": "Annapurna Store", "shop": "convenience"}}, {"type": "node", "id": 12610071825, "lat": 26.7087879, "lon": 88.4370208, "tags": {"name": "Maa Laxmi Store", "shop": "convenience"}}, {"type": "node", "id": 12610071828, "lat": 26.708917, "lon": 88.4372116, "tags": {"amenity": "pharmacy", "dispensing": "yes", "name": "New Medicine Corner"}}, {"type": "node", "id": 12610071834, "lat": 26.7088419, "lon": 88.4372394, "tags": {"amenity": "fast_food", "name": "Barbeque Inn"}}, {"type": "node", "id": 12610071835, "lat": 26.7088721, "lon": 88.437275, "tags": {"name": "Pabitra Stationary", "shop": "convenience"}}, {"type": "node", "id": 12610071978, "lat": 26.7052954, "lon": 88.4441666, "tags": {"amenity": "fast_food", "delivery": "yes", "name": "Paras Restro", "takeaway": "only"}}, {"type": "node", "id": 12610071979, "lat": 26.706058, "lon": 88.4440653, "tags": {"level": "0", "shop": "convenience", "wheelchair": "yes"}}, {"type": "node", "id": 12610072044, "lat": 26.7053361, "lon": 88.4423051, "tags": {"name": "Maa Tara Variety Stores", "shop": "convenience"}}, {"type": "node", "id": 12610072051, "lat": 26.7046071, "lon": 88.4407769, "tags": {"amenity": "pharmacy", "dispensing": "yes", "name": "Sauk Medical"}}, {"type": "node", "id": 12610072070, "lat": 26.7036121, "lon": 88.4406066, "tags": {"shop": "convenience"}}, {"type": "node", "id": 12610072072, "lat": 26.7021201, "lon": 88.4408162, "tags": {"amenity": "fast_food", "name": "Khushi Fast Food"}}, {"type": "node", "id": 12610072073, "lat": 26.7024172, "lon": 88.4406951, "tags": {"amenity": "fast_food", "name": "Goyenka Fast Food"}}, {"type": "node", "id": 12610072075, "lat": 26.7025801, "lon": 88.440624, "tags": {"name": "Maa Santoshi Store", "shop": "convenience"}}, {"type": "node", "id": 12610072077, "lat": 26.7020332, "lon": 88.4408627, "tags": {"amenity": "cafe", "name": "Jhunu Tea Corner"}}, {"type": "node", "id": 12610072106, "lat": 26.7003438, "lon": 88.4398526, "tags": {"name": "N P Variety", "shop": "convenience"}}, {"type": "node", "id": 12610072112, "lat": 26.6987995, "lon": 88.4394183, "tags": {"name": "Vidyashree Store", "shop": "convenience"}}, {"type": "node", "id": 12610072115, "lat": 26.698144, "lon": 88.4392085, "tags": {"amenity": "pharmacy", "dispensing": "yes", "name": "Baba Loknath Medical"}}, {"type": "node", "id": 12610072118, "lat": 26.6977939, "lon": 88.4392759, "tags": {"shop": "convenience"}}, {"type": "node", "id": 12610072166, "lat": 26.6974368, "lon": 88.4391451, "tags": {"name": "Manju Variety Store", "shop": "convenience"}}, {"type": "node", "id": 12610072181, "lat": 26.6970046, "lon": 88.4391646, "tags": {"name": "Amal Store", "shop": "convenience"}}, {"type": "node", "id": 12610072208, "lat": 26.6966553, "lon": 88.4392668, "tags": {"name": "Bhowmick Store", "shop": "convenience"}}, {"type": "node", "id": 12610072246, "lat": 26.6956124, "lon": 88.439073, "tags": {"name": "Gopal Mallick", "shop": "convenience"}}, {"type": "node", "id": 12610072247, "lat": 26.6953224, "lon": 88.439, "tags": {"name": "Sampa Stores", "shop": "convenience"}}, {"type": "node", "id": 12610072249, "lat": 26.6942578, "lon": 88.438727, "tags": {"name": "Ghosh Enterprise", "shop": "convenience"}}, {"type": "node", "id": 12610072372, "lat": 26.6929063, "lon": 88.4385594, "tags": {"name": "New Maa Bhakti Stores", "shop": "convenience"}}, {"type": "node", "id": 12610072373, "lat": 26.6929108, "lon": 88.4384752, "tags": {"name": "Meera Store", "shop": "convenience"}}, {"type": "node", "id": 12610072378, "lat": 26.6922925, "lon": 88.4384467, "tags": {"name": "Das Variety Stores", "shop": "convenience"}}, {"type": "node", "id": 12610072379, "lat": 26.692285, "lon": 88.4383676, "tags": {"name": "Uma Store", "shop": "convenience"}}, {"type": "node", "id": 12612477704, "lat": 26.7070355, "lon": 88.443726, "tags": {"shop": "convenience"}}, {"type": "node", "id": 12612477709, "lat": 26.7081213, "lon": 88.4343956, "tags": {"amenity": "pharmacy", "brand": "Apollo Pharmacy", "brand:wikidata": "Q62562612", "dispensing": "yes", "healthcare": "pharmacy", "name": "Apollo Pharmacy"}}, {"type": "node", "id": 12612477711, "lat": 26.7078595, "lon": 88.4342273, "tags": {"shop": "convenience"}}, {"type": "node", "id": 12616220122, "lat": 26.7029849, "lon": 88.4363003, "tags": {"shop": "convenience"}}, {"type": "node", "id": 12616220123, "lat": 26.702912, "lon": 88.4363844, "tags": {"name": "Biswas Stores", "shop": "convenience"}}, {"type": "node", "id": 12616220124, "lat": 26.7030365, "lon": 88.4363734, "tags": {"name": "Loknath Store", "shop": "convenience"}}, {"type": "node", "id": 12616232568, "lat": 26.7080922, "lon": 88.4446272, "tags": {"name": "Asha Stores", "shop": "convenience"}}, {"type": "node", "id": 12616232569, "lat": 26.7080958, "lon": 88.4445608, "tags": {"shop": "convenience"}}, {"type": "node", "id": 12616232573, "lat": 26.7100881, "lon": 88.4430313, "tags": {"name": "Abha Stores", "shop": "convenience"}}, {"type": "node", "id": 12616232579, "lat": 26.7108093, "lon": 88.4423862, "tags": {"amenity": "cafe", "name": "Chumuk E Chomok"}}, {"type": "node", "id": 12616232582, "lat": 26.709525, "lon": 88.442642, "tags": {"shop": "convenience"}}, {"type": "node", "id": 12616232597, "lat": 26.7081773, "lon": 88.4425834, "tags": {"name": "Kiran Stores", "shop": "convenience"}}, {"type": "node", "id": 12616232599, "lat": 26.7079607, "lon": 88.44251, "tags": {"name": "Matri Bhandar", "shop": "convenience"}}, {"type": "node", "id": 12616232624, "lat": 26.708253, "lon": 88.4407001, "tags": {"name": "Shilpi Store", "shop": "convenience"}}, {"type": "node", "id": 12616232625, "lat": 26.708315, "lon": 88.440671, "tags": {"shop": "convenience"}}, {"type": "node", "id": 12616232626, "lat": 26.708315, "lon": 88.4407048, "tags": {"name": "Jogomaya Store", "shop": "convenience"}}, {"type": "node", "id": 12616232643, "lat": 26.706565, "lon": 88.4402775, "tags": {"name": "Biki Store", "shop": "convenience"}}, {"type": "node", "id": 12616232644, "lat": 26.7066552, "lon": 88.4419534, "tags": {"name": "Sandha General Store", "shop": "convenience"}}, {"type": "node", "id": 12616232689, "lat": 26.706518, "lon": 88.4382178, "tags": {"amenity": "pharmacy", "dispensing": "yes", "name": "Yougal Medivision"}}, {"type": "node", "id": 12616232690, "lat": 26.7069086, "lon": 88.438204, "tags": {"name": "Biswas Variety Store", "shop": "convenience"}}, {"type": "node", "id": 12616232694, "lat": 26.7079341, "lon": 88.4351238, "tags": {"name": "Gopal Variety Store", "shop": "convenience"}}, {"type": "node", "id": 12616232695, "lat": 26.7080798, "lon": 88.4351173, "tags": {"amenity": "fast_food", "name": "Siliguri Biryani House"}}, {"type": "node", "id": 12616232696, "lat": 26.7080266, "lon": 88.4348999, "tags": {"name": "Dutta Stores", "shop": "convenience"}}, {"type": "node", "id": 12616232699, "lat": 26.7084106, "lon": 88.4342336, "tags": {"amenity": "pharmacy", "dispensing": "yes", "name": "Siliguri Pharmacy"}}, {"type": "node", "id": 12616232701, "lat": 26.7092606, "lon": 88.4340295, "tags": {"amenity": "restaurant", "name": "The Wok House"}}, {"type": "node", "id": 12616232703, "lat": 26.7095409, "lon": 88.4340147, "tags": {"amenity": "cafe", "name": "Dooars Taste"}}, {"type": "node", "id": 12616232704, "lat": 26.7095726, "lon": 88.4340141, "tags": {"amenity": "cafe", "name": "TeaMax Cafe"}}, {"type": "node", "id": 12616232706, "lat": 26.7096367, "lon": 88.4337256, "tags": {"name": "Shrutilipi Books & Stationery", "shop": "books"}}, {"type": "node", "id": 12616232707, "lat": 26.7096352, "lon": 88.4336888, "tags": {"name": "Sona Books International", "shop": "books"}}, {"type": "node", "id": 12616232708, "lat": 26.7097664, "lon": 88.4332553, "tags": {"amenity": "restaurant", "name": "Pebbles Restaurant"}}, {"type": "node", "id": 12616232723, "lat": 26.7086726, "lon": 88.4327745, "tags": {"name": "Shree Shree Bhabatarini Bhandar", "shop": "convenience"}}, {"type": "node", "id": 12616232724, "lat": 26.7086544, "lon": 88.4327517, "tags": {"name": "Tarana Stores", "shop": "convenience"}}, {"type": "node", "id": 12616232738, "lat": 26.7086002, "lon": 88.4312051, "tags": {"amenity": "cafe", "cuisine": "tea;coffee_shop;regional", "name": "Chaiwala"}}, {"type": "node", "id": 12616232749, "lat": 26.7086922, "lon": 88.4307783, "tags": {"amenity": "pharmacy", "dispensing": "yes", "name": "Aastha Medical"}}, {"type": "node", "id": 12616232782, "lat": 26.7082518, "lon": 88.4311991, "tags": {"name": "Bina Store", "shop": "convenience"}}, {"type": "node", "id": 12616232802, "lat": 26.7086369, "lon": 88.4300098, "tags": {"amenity": "cafe", "name": "Pizza Point"}}, {"type": "node", "id": 12616232805, "lat": 26.7084594, "lon": 88.4297664, "tags": {"amenity": "pharmacy", "dispensing": "yes", "level": "1", "name": "Healthline Pharmacy", "wheelchair": "no"}}, {"type": "node", "id": 12616232806, "lat": 26.7084193, "lon": 88.4296759, "tags": {"amenity": "restaurant", "name": "Petuk Bangali"}}, {"type": "node", "id": 12616232828, "lat": 26.7075669, "lon": 88.4289718, "tags": {"amenity": "restaurant", "name": "Mishti Nandan Pice Hotel"}}, {"type": "node", "id": 12618638599, "lat": 26.707879, "lon": 88.4289018, "tags": {"name": "Sahani Pan Ghar", "shop": "convenience"}}, {"type": "node", "id": 12618638600, "lat": 26.7081887, "lon": 88.4288143, "tags": {"amenity": "pharmacy", "dispensing": "yes", "name": "Jayasree Pharmacy"}}, {"type": "node", "id": 12618642701, "lat": 26.7086211, "lon": 88.4299757}, {"type": "node", "id": 12618642702, "lat": 26.7083666, "lon": 88.4301165}, {"type": "node", "id": 12618642703, "lat": 26.7083073, "lon": 88.4299562}, {"type": "node", "id": 12618642704, "lat": 26.7082947, "lon": 88.4298389}, {"type": "node", "id": 12618642705, "lat": 26.7082947, "lon": 88.4297765}, {"type": "node", "id": 12618642706, "lat": 26.708309, "lon": 88.4297121}, {"type": "node", "id": 12618642707, "lat": 26.7083366, "lon": 88.4296437}, {"type": "node", "id": 12618642708, "lat": 26.7083791, "lon": 88.42958}, {"type": "node", "id": 12618642709, "lat": 26.7084342, "lon": 88.4295304}, {"type": "node", "id": 12618642714, "lat": 26.7084762, "lon": 88.4332651, "tags": {"amenity": "fast_food", "name": "Sudhu Machh"}}, {"type": "node", "id": 12618642715, "lat": 26.7084049, "lon": 88.4334194, "tags": {"amenity": "cafe", "name": "Aroma Chai Bar"}}, {"type": "node", "id": 12618642716, "lat": 26.7084368, "lon": 88.4334298, "tags": {"amenity": "cafe", "name": "Hunger's Stop Cafe & Bakery"}}, {"type": "node", "id": 12618642746, "lat": 26.7036469, "lon": 88.4353468, "tags": {"name": "Bilash Pan Ghar", "shop": "convenience"}}, {"type": "node", "id": 12618642747, "lat": 26.7035624, "lon": 88.4354668, "tags": {"shop": "convenience"}}, {"type": "node", "id": 12618642749, "lat": 26.7032084, "lon": 88.4381544, "tags": {"amenity": "cafe", "name": "Tea N Tiffin Cafe"}}, {"type": "node", "id": 12618642752, "lat": 26.703049, "lon": 88.4383277, "tags": {"name": "Paul Store", "shop": "convenience"}}, {"type": "node", "id": 12618642754, "lat": 26.7021421, "lon": 88.4391468, "tags": {"name": "Jagannath Store", "shop": "convenience"}}, {"type": "node", "id": 12618642757, "lat": 26.7016237, "lon": 88.4406439, "tags": {"amenity": "fast_food", "name": "Digha Fish Fry"}}, {"type": "node", "id": 12618642758, "lat": 26.7030814, "lon": 88.4435671, "tags": {"amenity": "fast_food"}}, {"type": "node", "id": 12625603813, "lat": 26.707274, "lon": 88.435158, "tags": {"name": "Biswas Stationary's", "shop": "convenience"}}, {"type": "node", "id": 12625603815, "lat": 26.7080266, "lon": 88.4350408, "tags": {"amenity": "restaurant", "name": "Yogmaya Hotel"}}, {"type": "node", "id": 12625603819, "lat": 26.70782, "lon": 88.434325, "tags": {"amenity": "cafe", "name": "Khurak"}}, {"type": "node", "id": 12625603824, "lat": 26.708432, "lon": 88.4339745, "tags": {"amenity": "cafe", "name": "Khabo Na Amra Cha??", "operator": "Brew Bites Cafe & Co"}}, {"type": "node", "id": 12625603826, "lat": 26.7084783, "lon": 88.4338464, "tags": {"amenity": "fast_food", "name": "Swade Allade"}}, {"type": "node", "id": 12625603831, "lat": 26.7084191, "lon": 88.4335212, "tags": {"amenity": "pharmacy", "dispensing": "yes", "name": "Jan Kalyan Pharmacy"}}, {"type": "node", "id": 12625603834, "lat": 26.7086157, "lon": 88.4332778, "tags": {"amenity": "pharmacy", "dispensing": "yes", "name": "Sree Guru Medical Hall"}}, {"type": "node", "id": 12625603837, "lat": 26.7087372, "lon": 88.4322092, "tags": {"amenity": "pharmacy", "dispensing": "yes", "name": "Baghajatin Medical Stores"}}, {"type": "node", "id": 12625603841, "lat": 26.707966, "lon": 88.4313553, "tags": {"amenity": "cafe", "name": "Munching Affairs"}}, {"type": "node", "id": 12625603869, "lat": 26.7083989, "lon": 88.4322562, "tags": {"amenity": "theatre", "name": "Rabindra Mancha"}}, {"type": "node", "id": 12625603888, "lat": 26.7087966, "lon": 88.4305838, "tags": {"amenity": "restaurant", "name": "Vola Hotel"}}, {"type": "node", "id": 12625610210, "lat": 26.7075091, "lon": 88.4290637, "tags": {"amenity": "restaurant", "name": "Khushbu Hotel"}}, {"type": "node", "id": 12626330486, "lat": 26.7032965, "lon": 88.4441398, "tags": {"shop": "convenience"}}, {"type": "node", "id": 12626330508, "lat": 26.7017124, "lon": 88.4397673, "tags": {"shop": "convenience"}}, {"type": "node", "id": 12626330523, "lat": 26.7026936, "lon": 88.4362165, "tags": {"name": "Basumati Bhander", "shop": "convenience"}}, {"type": "node", "id": 12626330527, "lat": 26.7044086, "lon": 88.4351405, "tags": {"shop": "convenience"}}, {"type": "node", "id": 12626330528, "lat": 26.7042272, "lon": 88.4350345, "tags": {"shop": "convenience"}}, {"type": "node", "id": 12626330560, "lat": 26.7053559, "lon": 88.4341502, "tags": {"name": "Muniti Store", "shop": "convenience"}}, {"type": "node", "id": 12626330565, "lat": 26.7054697, "lon": 88.434119, "tags": {"shop": "convenience"}}, {"type": "node", "id": 12626330566, "lat": 26.7054805, "lon": 88.4339943, "tags": {"shop": "convenience"}}, {"type": "node", "id": 12628604344, "lat": 26.7060391, "lon": 88.4350108, "tags": {"level": "0", "name": "Niharika", "shop": "convenience"}}, {"type": "node", "id": 12628604354, "lat": 26.7081672, "lon": 88.4350131, "tags": {"amenity": "pharmacy", "dispensing": "yes", "name": "Medicross"}}, {"type": "node", "id": 12628604355, "lat": 26.7078888, "lon": 88.4345445, "tags": {"building": "kiosk", "name": "Raj Enterprise", "shop": "convenience"}}, {"type": "node", "id": 12628604356, "lat": 26.7086664, "lon": 88.4329097, "tags": {"amenity": "cafe", "name": "Sip O Tea"}}, {"type": "node", "id": 12628604357, "lat": 26.7072985, "lon": 88.4293634, "tags": {"amenity": "restaurant", "name": "Rina Pice Hotel"}}, {"type": "node", "id": 12637936313, "lat": 26.6728884, "lon": 88.4156393}, {"type": "node", "id": 12637936314, "lat": 26.6728243, "lon": 88.4156379}, {"type": "node", "id": 12637936315, "lat": 26.6728272, "lon": 88.4154609}, {"type": "node", "id": 12637936316, "lat": 26.6728914, "lon": 88.4154622}, {"type": "node", "id": 12691113895, "lat": 26.7027567, "lon": 88.41756}, {"type": "node", "id": 12691113896, "lat": 26.7030116, "lon": 88.4175074}, {"type": "node", "id": 12691113897, "lat": 26.7030966, "lon": 88.4178203}, {"type": "node", "id": 12691113898, "lat": 26.7028417, "lon": 88.4179104}, {"type": "node", "id": 12744448241, "lat": 26.7027532, "lon": 88.4417478, "tags": {"air_conditioning": "yes", "amenity": "restaurant", "cuisine": "waffles;coffee_shop", "delivery": "yes", "level": "0", "name": "Taste of Waffles", "outdoor_seating": "no", "self_service": "yes", "takeaway": "yes", "wheelchair": "no"}}, {"type": "node", "id": 12744540240, "lat": 26.7027256, "lon": 88.4417603, "tags": {"amenity": "restaurant", "cuisine": "indian;tibetan;chinese", "name": "Puchkaman Street Food Cafe"}}, {"type": "node", "id": 12744540249, "lat": 26.7029382, "lon": 88.4418179, "tags": {"amenity": "restaurant", "cuisine": "indian", "name": "King Biryani"}}, {"type": "node", "id": 12744551320, "lat": 26.7040303, "lon": 88.4441847, "tags": {"name": "Mahamaya Bhandar", "shop": "convenience"}}, {"type": "node", "id": 12802943612, "lat": 26.7087429, "lon": 88.4304, "tags": {"name": "Siliguri Book Centre", "shop": "books"}}, {"type": "node", "id": 12802943614, "lat": 26.7086797, "lon": 88.4310586, "tags": {"amenity": "restaurant", "name": "Ektu Adda"}}, {"type": "node", "id": 12802943616, "lat": 26.7085591, "lon": 88.4328932, "tags": {"amenity": "fast_food", "cuisine": "fried_food;regional", "name": "Digha Fish Fry"}}, {"type": "node", "id": 12802943617, "lat": 26.7084258, "lon": 88.4339954, "tags": {"name": "Namkeen Bahar", "shop": "convenience"}}, {"type": "node", "id": 12802943619, "lat": 26.7081515, "lon": 88.4341978, "tags": {"amenity": "fast_food", "cuisine": "juice", "name": "Lassi Ghar"}}, {"type": "node", "id": 12802943622, "lat": 26.7073812, "lon": 88.4358527, "tags": {"shop": "convenience"}}, {"type": "node", "id": 12802943632, "lat": 26.7074796, "lon": 88.4373731, "tags": {"amenity": "fast_food", "name": "Di Ghoroya Fast Food Corner"}}, {"type": "node", "id": 12802943638, "lat": 26.7047458, "lon": 88.4391478, "tags": {"name": "Deep Bhandar", "shop": "convenience"}}, {"type": "node", "id": 12871934705, "lat": 26.7522442, "lon": 88.4396218}, {"type": "node", "id": 12871934706, "lat": 26.7522952, "lon": 88.439261}, {"type": "node", "id": 12871934707, "lat": 26.7519317, "lon": 88.4390944}, {"type": "node", "id": 12871934708, "lat": 26.7517998, "lon": 88.4394555}, {"type": "node", "id": 12871934709, "lat": 26.7517109, "lon": 88.4394147}, {"type": "node", "id": 12871934710, "lat": 26.7519038, "lon": 88.4388865}, {"type": "node", "id": 12871934711, "lat": 26.7519346, "lon": 88.4387034}, {"type": "node", "id": 12871934712, "lat": 26.7519267, "lon": 88.4382396}, {"type": "node", "id": 12871934713, "lat": 26.7524085, "lon": 88.4382822}, {"type": "node", "id": 12871934714, "lat": 26.7524958, "lon": 88.4377771}, {"type": "node", "id": 12871934715, "lat": 26.7530142, "lon": 88.4378224}, {"type": "node", "id": 12871934716, "lat": 26.7528651, "lon": 88.4397812}, {"type": "node", "id": 12872816355, "lat": 26.7158291, "lon": 88.4223773, "tags": {"check_date": "2025-07-27", "level": "0", "name": "Agarwal Book House", "name:bn": "\u0986\u0997\u09b0\u0993\u09df\u09be\u09b2 \u09ac\u09c1\u0995 \u09b9\u09be\u0989\u09b8", "shop": "books"}}, {"type": "node", "id": 12872816376, "lat": 26.7153112, "lon": 88.420889, "tags": {"name": "Nityam Departmental Store", "shop": "convenience"}}, {"type": "node", "id": 12872816460, "lat": 26.7151064, "lon": 88.4208816, "tags": {"amenity": "restaurant", "name": "Majestic Banquet"}}, {"type": "node", "id": 12872816542, "lat": 26.7150366, "lon": 88.4201578, "tags": {"name": "Shiv Pan Ghar", "shop": "convenience"}}, {"type": "node", "id": 12872816543, "lat": 26.7154185, "lon": 88.4203177, "tags": {"amenity": "restaurant", "check_date": "2026-03-19", "name": "Zaika Biriyani House"}}, {"type": "node", "id": 12872816544, "lat": 26.7155562, "lon": 88.4201568, "tags": {"check_date": "2026-03-19", "name": "HM Parloor", "shop": "convenience"}}, {"type": "node", "id": 12874579095, "lat": 26.724354, "lon": 88.4168015, "tags": {"amenity": "restaurant", "cuisine": "tibetan", "name": "Himali Tibetan kitchen"}}, {"type": "node", "id": 12877819476, "lat": 26.6670982, "lon": 88.4153952}, {"type": "node", "id": 12877819477, "lat": 26.667061, "lon": 88.415076}, {"type": "node", "id": 12877819478, "lat": 26.6675213, "lon": 88.415013}, {"type": "node", "id": 12877819479, "lat": 26.6675213, "lon": 88.415316}, {"type": "node", "id": 12877875310, "lat": 26.6911653, "lon": 88.4117749, "tags": {"check_date": "2025-11-21", "name": "Shyamal Stores", "shop": "convenience"}}, {"type": "node", "id": 12877875311, "lat": 26.6904129, "lon": 88.4127599, "tags": {"amenity": "fast_food", "name": "Makhan Priya Momo Ghar"}}, {"type": "node", "id": 12877875313, "lat": 26.6877408, "lon": 88.4165425, "tags": {"check_date": "2025-11-21", "level": "0", "name": "Loknath Pan Ghar", "shop": "convenience"}}, {"type": "node", "id": 12877881869, "lat": 26.6865734, "lon": 88.416415}, {"type": "node", "id": 12877881882, "lat": 26.6869512, "lon": 88.4161355}, {"type": "node", "id": 12877881883, "lat": 26.6867893, "lon": 88.4159318}, {"type": "node", "id": 12877881884, "lat": 26.686532, "lon": 88.4159545}, {"type": "node", "id": 12877881885, "lat": 26.686536, "lon": 88.4160114}, {"type": "node", "id": 12877881886, "lat": 26.6864793, "lon": 88.4160259}, {"type": "node", "id": 12877881887, "lat": 26.6864671, "lon": 88.4160553}, {"type": "node", "id": 12877881888, "lat": 26.6864905, "lon": 88.4160154}, {"type": "node", "id": 12877881889, "lat": 26.6864713, "lon": 88.4160396}, {"type": "node", "id": 12877881890, "lat": 26.6864671, "lon": 88.4160718}, {"type": "node", "id": 12877881891, "lat": 26.6865025, "lon": 88.4161133}, {"type": "node", "id": 12877881892, "lat": 26.686539, "lon": 88.416114}, {"type": "node", "id": 12877881893, "lat": 26.6865438, "lon": 88.4163205}, {"type": "node", "id": 12877881894, "lat": 26.686521, "lon": 88.4164225}, {"type": "node", "id": 12877881895, "lat": 26.686962, "lon": 88.4163594}, {"type": "node", "id": 12878805771, "lat": 26.7020984, "lon": 88.4138328, "tags": {"amenity": "pharmacy", "dispensing": "yes", "healthcare": "pharmacy", "name": "Jan Kalyan Pharmacy"}}, {"type": "node", "id": 12878815707, "lat": 26.7068268, "lon": 88.4166162, "tags": {"check_date": "2026-03-19", "shop": "convenience"}}, {"type": "node", "id": 12878815749, "lat": 26.7041483, "lon": 88.4156835}, {"type": "node", "id": 12878815750, "lat": 26.7040153, "lon": 88.4161086}, {"type": "node", "id": 12878815751, "lat": 26.7043543, "lon": 88.4162427}, {"type": "node", "id": 12878815752, "lat": 26.7044897, "lon": 88.4158444}, {"type": "node", "id": 12878815754, "lat": 26.7014712, "lon": 88.4138697, "tags": {"check_date": "2026-03-19", "shop": "convenience"}}, {"type": "node", "id": 12878815755, "lat": 26.7014598, "lon": 88.4138267, "tags": {"check_date": "2026-03-19", "shop": "convenience"}}, {"type": "node", "id": 12878815756, "lat": 26.7014478, "lon": 88.4137892, "tags": {"amenity": "pharmacy", "check_date": "2026-03-19", "healthcare": "pharmacy", "name": "Classic Medical & General Stores"}}, {"type": "node", "id": 12878815758, "lat": 26.7013975, "lon": 88.4137376, "tags": {"check_date": "2026-03-19", "name": "Ganguly", "shop": "convenience"}}, {"type": "node", "id": 12878815759, "lat": 26.7015538, "lon": 88.413415, "tags": {"check_date": "2026-03-19", "shop": "convenience"}}, {"type": "node", "id": 12878815762, "lat": 26.7014155, "lon": 88.4133191, "tags": {"amenity": "restaurant", "check_date": "2026-03-19", "name": "Hotel Rani Bala"}}, {"type": "node", "id": 12878815883, "lat": 26.7107518, "lon": 88.4172647}, {"type": "node", "id": 12878815884, "lat": 26.7107733, "lon": 88.4174082}, {"type": "node", "id": 12878815885, "lat": 26.7108027, "lon": 88.4180177}, {"type": "node", "id": 12878815886, "lat": 26.7107865, "lon": 88.418072}, {"type": "node", "id": 12878815887, "lat": 26.7105206, "lon": 88.4179721}, {"type": "node", "id": 12878815888, "lat": 26.710596, "lon": 88.4175617}, {"type": "node", "id": 12878815889, "lat": 26.7106134, "lon": 88.4172566}, {"type": "node", "id": 12878815930, "lat": 26.6890948, "lon": 88.4145583}, {"type": "node", "id": 12878815945, "lat": 26.6891456, "lon": 88.4144692}, {"type": "node", "id": 12878815948, "lat": 26.6893168, "lon": 88.4141684}, {"type": "node", "id": 12878815949, "lat": 26.6890166, "lon": 88.4144712}, {"type": "node", "id": 12878815950, "lat": 26.6887259, "lon": 88.414249}, {"type": "node", "id": 12878815951, "lat": 26.688985, "lon": 88.4138245}, {"type": "node", "id": 12878815952, "lat": 26.6892444, "lon": 88.4140229}, {"type": "node", "id": 12878815953, "lat": 26.6893704, "lon": 88.4140742}, {"type": "node", "id": 12878815956, "lat": 26.6734049, "lon": 88.4155816, "tags": {"name": "Khatun Store", "shop": "convenience"}}, {"type": "node", "id": 12878815957, "lat": 26.6733797, "lon": 88.4155427, "tags": {"amenity": "cafe", "name": "Md Laltu Tea Stall"}}, {"type": "node", "id": 12878865811, "lat": 26.7036309, "lon": 88.4445849, "tags": {"amenity": "restaurant"}}, {"type": "node", "id": 12878865812, "lat": 26.7036127, "lon": 88.4445951, "tags": {"check_date": "2025-03-06", "name": "The Grocery Meet", "shop": "convenience"}}, {"type": "node", "id": 12878865816, "lat": 26.7084413, "lon": 88.4339432, "tags": {"amenity": "pharmacy", "brand": "Davaindia", "brand:wikidata": "Q126740400", "dispensing": "yes", "healthcare": "pharmacy", "name": "Davaindia Generic Pharmacy"}}, {"type": "node", "id": 12878865817, "lat": 26.7099186, "lon": 88.431697, "tags": {"amenity": "fast_food", "name": "Hong Kong Momo's"}}, {"type": "node", "id": 12878865818, "lat": 26.7116784, "lon": 88.4286044, "tags": {"amenity": "fast_food", "name": "Mumbai Cuisines"}}, {"type": "node", "id": 12888795623, "lat": 26.7251199, "lon": 88.4291693}, {"type": "node", "id": 12888795624, "lat": 26.7248177, "lon": 88.429035}, {"type": "node", "id": 12888795625, "lat": 26.7247652, "lon": 88.4299014}, {"type": "node", "id": 12888795626, "lat": 26.7250899, "lon": 88.429935}, {"type": "node", "id": 12888795631, "lat": 26.7248192, "lon": 88.4291318}, {"type": "node", "id": 12888795632, "lat": 26.7249481, "lon": 88.4291402}, {"type": "node", "id": 12888795633, "lat": 26.7249456, "lon": 88.4291865}, {"type": "node", "id": 12944713695, "lat": 26.7145543, "lon": 88.4254054, "tags": {"amenity": "pharmacy", "check_date": "2025-06-22", "contact:phone": "+91 95936 70082", "dispensing": "yes", "healthcare": "pharmacy", "internet_access": "no", "level": "0", "name": "Barbie Medico", "wheelchair": "limited"}}, {"type": "node", "id": 12944726847, "lat": 26.7142139, "lon": 88.425672, "tags": {"addr:floor": "G", "brand": "Patanjali Ayurved", "brand:wikidata": "Q19856023", "check_date": "2025-06-22", "internet_access": "no", "level": "0", "name": "Patanjali Store", "payment:cash": "yes", "shop": "convenience", "wheelchair": "no"}}, {"type": "node", "id": 12944726858, "lat": 26.7142069, "lon": 88.4257693, "tags": {"addr:floor": "G", "amenity": "pharmacy", "check_date": "2025-06-22", "contact:phone": "+91 70014 45421; +91 94344 27068", "dispensing": "yes", "drive_through": "no", "healthcare": "pharmacy", "internet_access": "no", "level": "0", "name": "D K Pharma & Surgical", "wheelchair": "no"}}, {"type": "node", "id": 12944726859, "lat": 26.7142119, "lon": 88.4257006, "tags": {"addr:floor": "G", "amenity": "pharmacy", "check_date": "2025-06-22", "contact:phone": "03532536966", "dispensing": "yes", "drive_through": "no", "healthcare": "pharmacy", "internet_access": "no", "level": "0", "name": "Bhadra Pharmaceuticals", "wheelchair": "no"}}, {"type": "node", "id": 12944726861, "lat": 26.7142888, "lon": 88.4256261, "tags": {"addr:floor": "G", "amenity": "pharmacy", "check_date": "2025-06-22", "contact:phone": "+91 94756 28630; 03532521160", "dispensing": "yes", "healthcare": "pharmacy", "internet_access": "no", "level": "0", "name": "Indian Drugs", "payment:cash": "yes", "wheelchair": "no"}}, {"type": "node", "id": 12944726863, "lat": 26.714474, "lon": 88.4256013, "tags": {"addr:floor": "G", "amenity": "pharmacy", "check_date": "2025-06-22", "contact:phone": "03532523388", "dispensing": "yes", "healthcare": "pharmacy", "level": "0", "name": "Sourav Medical Agency", "payment:cash": "yes", "wheelchair": "limited"}}, {"type": "node", "id": 12944726864, "lat": 26.7145022, "lon": 88.4256038, "tags": {"addr:floor": "G", "amenity": "pharmacy", "check_date": "2025-06-22", "contact:phone": "+91 98325 33031", "dispensing": "yes", "healthcare": "pharmacy", "internet_access": "no", "level": "0", "name": "Prova Enterprise", "payment:cash": "yes", "wheelchair": "limited"}}, {"type": "node", "id": 12944726866, "lat": 26.7145978, "lon": 88.4256123, "tags": {"addr:floor": "G", "amenity": "pharmacy", "check_date": "2025-06-22", "contact:phone": "+91 90640 72712", "dispensing": "yes", "drive_through": "no", "healthcare": "pharmacy", "internet_access": "no", "level": "0", "name": "Bengal Medico", "wheelchair": "limited"}}, {"type": "node", "id": 12944726869, "lat": 26.7142395, "lon": 88.4254183, "tags": {"addr:floor": "G", "amenity": "pharmacy", "check_date": "2025-06-22", "contact:phone": "+91 79084 08390; +91 70016 74418", "dispensing": "yes", "drive_through": "no", "healthcare": "pharmacy", "internet_access": "no", "level": "0", "name": "Nandi Pharmaceuticals", "wheelchair": "limited"}}, {"type": "node", "id": 12944726870, "lat": 26.7142477, "lon": 88.4253427, "tags": {"addr:floor": "G", "amenity": "pharmacy", "check_date": "2025-06-22", "contact:phone": "+91 94340 45684", "dispensing": "yes", "drive_through": "no", "healthcare": "pharmacy", "internet_access": "no", "level": "0", "name": "Sunrise Distributors", "wheelchair": "limited"}}, {"type": "node", "id": 12944726872, "lat": 26.7142291, "lon": 88.4252419, "tags": {"addr:floor": "G", "amenity": "pharmacy", "check_date": "2025-06-22", "contact:phone": "+91 98320 94247", "dispensing": "yes", "healthcare": "pharmacy", "internet_access": "no", "level": "0", "name": "Joy Durga Distributors", "payment:cash": "yes", "wheelchair": "no"}}, {"type": "node", "id": 12944726873, "lat": 26.7141937, "lon": 88.4252422, "tags": {"addr:floor": "G", "amenity": "pharmacy", "check_date": "2025-06-22", "contact:phone": "+91 98324 99555", "dispensing": "yes", "healthcare": "pharmacy", "internet_access": "no", "level": "0", "name": "Suroshi Enterprise", "payment:cash": "yes", "wheelchair": "no"}}, {"type": "node", "id": 12944726874, "lat": 26.7145359, "lon": 88.4254038, "tags": {"addr:floor": "G", "amenity": "pharmacy", "check_date": "2025-06-22", "dispensing": "yes", "drive_through": "no", "healthcare": "pharmacy", "internet_access": "no", "level": "0", "name": "ASGR Agency", "wheelchair": "limited"}}, {"type": "node", "id": 12944726875, "lat": 26.7141484, "lon": 88.4253037, "tags": {"addr:floor": "G", "amenity": "pharmacy", "check_date": "2025-06-22", "dispensing": "yes", "healthcare": "pharmacy", "internet_access": "no", "level": "0", "name": "Tarai Drug Distributors", "payment:cash": "yes", "wheelchair": "no"}}, {"type": "node", "id": 12944726876, "lat": 26.7141696, "lon": 88.4252424, "tags": {"addr:floor": "G", "amenity": "pharmacy", "check_date": "2025-06-22", "contact:phone": "+91 94341 43189", "dispensing": "yes", "healthcare": "pharmacy", "internet_access": "no", "level": "0", "name": "Sunny Drug Agency", "payment:cash": "yes", "wheelchair": "no"}}, {"type": "node", "id": 12944726878, "lat": 26.7140768, "lon": 88.4253067, "tags": {"addr:floor": "G", "amenity": "pharmacy", "check_date": "2025-06-22", "dispensing": "yes", "healthcare": "pharmacy", "internet_access": "no", "level": "0", "name": "Baba Loknath Drug House", "payment:cash": "yes", "wheelchair": "no"}}, {"type": "node", "id": 12944726879, "lat": 26.7141148, "lon": 88.4252494, "tags": {"addr:floor": "G", "amenity": "pharmacy", "check_date": "2025-06-22", "contact:phone": "+91 89273 99765; +91 94743 85702", "dispensing": "yes", "healthcare": "pharmacy", "internet_access": "no", "level": "0", "name": "The Pharmatach", "payment:cash": "yes", "wheelchair": "no"}}, {"type": "node", "id": 12944726880, "lat": 26.7140195, "lon": 88.4252591, "tags": {"addr:floor": "G", "amenity": "pharmacy", "check_date": "2025-06-22", "contact:phone": "+91 83730 52960; 03532433224", "dispensing": "yes", "healthcare": "pharmacy", "internet_access": "no", "level": "0", "name": "North Eastern Enterprise", "payment:cash": "yes", "wheelchair": "no"}}, {"type": "node", "id": 12944726881, "lat": 26.7140326, "lon": 88.4252032, "tags": {"addr:floor": "G", "amenity": "pharmacy", "check_date": "2025-06-22", "contact:phone": "+91 62977 98228", "dispensing": "yes", "healthcare": "pharmacy", "internet_access": "no", "level": "0", "name": "Progoti Enterprise", "payment:cash": "yes", "wheelchair": "limited"}}, {"type": "node", "id": 12944726882, "lat": 26.7140478, "lon": 88.4251797, "tags": {"addr:floor": "G", "amenity": "pharmacy", "check_date": "2025-06-22", "contact:phone": "03532520164", "dispensing": "yes", "healthcare": "pharmacy", "internet_access": "no", "level": "0", "name": "New B D Enterprise", "payment:cash": "yes", "wheelchair": "limited"}}, {"type": "node", "id": 12944726883, "lat": 26.7139665, "lon": 88.4253248, "tags": {"addr:floor": "G", "amenity": "pharmacy", "check_date": "2025-06-22", "dispensing": "yes", "healthcare": "pharmacy", "internet_access": "no", "level": "0", "name": "Bhagat Drug House", "payment:cash": "yes", "wheelchair": "no"}}, {"type": "node", "id": 12944726886, "lat": 26.7137769, "lon": 88.425261, "tags": {"addr:floor": "G", "amenity": "pharmacy", "check_date": "2025-06-22", "contact:phone": "+91 85091 94876", "dispensing": "yes", "healthcare": "pharmacy", "internet_access": "no", "level": "0", "name": "G D Enterprise", "payment:cash": "yes", "wheelchair": "limited"}}, {"type": "node", "id": 12944726887, "lat": 26.7137201, "lon": 88.4253309, "tags": {"addr:floor": "G", "amenity": "pharmacy", "check_date": "2025-06-22", "contact:phone": "+91 94745 84232", "dispensing": "yes", "healthcare": "pharmacy", "internet_access": "no", "level": "0", "name": "Anjali", "payment:cash": "yes", "wheelchair": "no"}}, {"type": "node", "id": 12944726888, "lat": 26.7141921, "lon": 88.4253019, "tags": {"addr:floor": "G", "amenity": "pharmacy", "check_date": "2025-06-22", "contact:phone": "+91 97493 30095", "dispensing": "yes", "healthcare": "pharmacy", "internet_access": "no", "level": "0", "name": "Nisha Enterprise", "payment:cash": "yes", "wheelchair": "no"}}, {"type": "node", "id": 12945107846, "lat": 26.7143553, "lon": 88.4254303, "tags": {"air_conditioning": "yes", "amenity": "restaurant", "contact:phone": "+91 353 243 1566;+91 353 243 1567", "cuisine": "chinese;indian;regional", "level": "0", "name": "The Kings Restaurant", "operator": "Hotel Sevoke Valley", "outdoor_seating": "no", "smoking": "no", "takeaway": "yes", "toilets": "yes", "toilets:access": "customers", "wheelchair": "limited"}}, {"type": "node", "id": 13013153897, "lat": 26.7257113, "lon": 88.4151484}, {"type": "node", "id": 13013153898, "lat": 26.725637, "lon": 88.4149835}, {"type": "node", "id": 13013153899, "lat": 26.725313, "lon": 88.4151725}, {"type": "node", "id": 13013153900, "lat": 26.7254184, "lon": 88.4154072}, {"type": "node", "id": 13028158685, "lat": 26.7164577, "lon": 88.422317, "tags": {"addr:floor": "G", "check_date": "2025-07-27", "level": "0", "name": "Raju Bakery", "payment:cash": "yes", "payment:upi": "yes", "shop": "bakery", "wheelchair": "yes"}}, {"type": "node", "id": 13028158688, "lat": 26.716585, "lon": 88.4222257, "tags": {"addr:floor": "G", "brand": "Oxford Exercise Book", "check_date": "2025-07-27", "contact:phone": "+91 97330 02070", "level": "0", "name": "Rose Paper House", "shop": "books", "wheelchair": "yes"}}, {"type": "node", "id": 13028181164, "lat": 26.7160894, "lon": 88.422134, "tags": {"addr:floor": "2", "amenity": "restaurant", "check_date": "2025-07-27", "internet_access": "no", "name": "Hotel North Point", "wheelchair": "limited"}}, {"type": "node", "id": 13028181165, "lat": 26.7162171, "lon": 88.4225081, "tags": {"addr:floor": "G", "amenity": "pharmacy", "check_date": "2025-07-27", "dispensing": "yes", "drive_through": "no", "healthcare": "pharmacy", "internet_access": "no", "level": "0", "name": "Padmanidhi Agency", "wheelchair": "limited"}}, {"type": "node", "id": 13028181167, "lat": 26.7163329, "lon": 88.4220439, "tags": {"addr:floor": "G", "amenity": "pharmacy", "check_date": "2025-07-27", "contact:phone": "03532538844", "dispensing": "yes", "drive_through": "no", "healthcare": "pharmacy", "internet_access": "no", "level": "0", "name": "Siliguri Medical Hall", "wheelchair": "no"}}, {"type": "node", "id": 13028181175, "lat": 26.7164375, "lon": 88.4219523, "tags": {"addr:floor": "3", "amenity": "bar", "check_date": "2025-07-27", "internet_access": "wlan", "internet_access:fee": "customers", "min_age": "21", "name": "Friday", "wheelchair": "no"}}, {"type": "node", "id": 13028254172, "lat": 26.7163255, "lon": 88.424442, "tags": {"addr:floor": "G", "amenity": "restaurant", "check_date": "2025-07-27", "level": "0", "name": "Only Veg Restaurant", "wheelchair": "limited"}}, {"type": "node", "id": 13028254188, "lat": 26.7163368, "lon": 88.4249257, "tags": {"addr:floor": "G", "check_date": "2025-07-27", "contact:phone": "+91 89183 38983", "internet_access": "no", "level": "0", "name": "Monali Varities", "shop": "convenience", "wheelchair": "limited"}}, {"type": "node", "id": 13028284243, "lat": 26.7157727, "lon": 88.4224666, "tags": {"amenity": "fast_food", "brand": "Wow! Momo", "brand:wikidata": "Q8037446", "check_date": "2025-07-27", "cuisine": "momo;burger;coffee_shop;sandwich;chicken;indian;ice_cream;chinese", "internet_access": "no", "level": "1", "name": "Wow! Momo", "payment:cash": "yes", "payment:credit_cards": "yes", "payment:debit_cards": "yes", "takeaway": "yes", "wheelchair": "no"}}, {"type": "node", "id": 13028284244, "lat": 26.7161013, "lon": 88.4221749, "tags": {"addr:floor": "G", "amenity": "restaurant", "check_date": "2025-07-27", "internet_access": "wlan", "internet_access:fee": "no", "level": "0", "name": "Petuk Moshai", "payment:cash": "yes", "payment:credit_cards": "yes", "payment:debit_cards": "yes", "wheelchair": "yes"}}, {"type": "node", "id": 13028284254, "lat": 26.7168364, "lon": 88.4220666, "tags": {"addr:floor": "G", "books": "children;textbook", "check_date": "2025-07-27", "contact:phone": "+91 86175 01902", "internet_access": "no", "level": "0", "name": "Eastern Book Depot", "payment:cash": "yes", "payment:credit_cards": "yes", "payment:debit_cards": "yes", "shop": "books", "wheelchair": "no"}}, {"type": "node", "id": 13028310940, "lat": 26.7181643, "lon": 88.420717, "tags": {"addr:floor": "G", "amenity": "restaurant", "check_date": "2025-07-27", "level": "0", "name": "Adalat Hotel", "phone": "+91 82582 99644"}}, {"type": "node", "id": 13028314318, "lat": 26.6853441, "lon": 88.442064, "tags": {"addr:floor": "G", "check_date": "2025-07-27", "internet_access": "no", "level": "0", "name": "Saha Store", "payment:cards": "no", "payment:cash": "yes", "payment:credit_cards": "no", "payment:debit_cards": "no", "shop": "convenience", "wheelchair": "yes"}}, {"type": "node", "id": 13028314319, "lat": 26.685468, "lon": 88.4420342, "tags": {"addr:floor": "G", "amenity": "restaurant", "check_date": "2025-07-27", "level": "0", "name": "Masi Hotel", "wheelchair": "yes"}}, {"type": "node", "id": 13028314320, "lat": 26.685349, "lon": 88.4421197, "tags": {"amenity": "restaurant", "check_date": "2025-07-27", "name": "Maa Hotel"}}, {"type": "node", "id": 13028314325, "lat": 26.6853544, "lon": 88.44218, "tags": {"amenity": "restaurant", "check_date": "2025-07-27", "name": "Dinesh Hotel"}}, {"type": "node", "id": 13028314326, "lat": 26.6853567, "lon": 88.442206, "tags": {"amenity": "restaurant", "check_date": "2025-07-27", "name": "Subarna Hotel"}}, {"type": "node", "id": 13028314327, "lat": 26.6853591, "lon": 88.4422324, "tags": {"addr:floor": "G", "amenity": "restaurant", "check_date": "2025-07-27", "level": "0", "name": "Sagarika Hotel"}}, {"type": "node", "id": 13028314331, "lat": 26.6853732, "lon": 88.4423909, "tags": {"addr:floor": "G", "amenity": "restaurant", "check_date": "2025-07-27", "level": "0", "name": "Ratan Hotel"}}, {"type": "node", "id": 13028314332, "lat": 26.6853764, "lon": 88.4424264, "tags": {"addr:floor": "G", "amenity": "restaurant", "check_date": "2025-07-27", "level": "0", "name": "Subhankar Hotel"}}, {"type": "node", "id": 13028314334, "lat": 26.6889092, "lon": 88.4383805, "tags": {"addr:floor": "G", "check_date": "2025-07-27", "internet_access": "no", "level": "0", "name": "Joy Radhe Stores", "payment:cards": "no", "payment:cash": "yes", "payment:credit_cards": "no", "payment:debit_cards": "no", "shop": "convenience", "wheelchair": "limited"}}, {"type": "node", "id": 13028314337, "lat": 26.6900257, "lon": 88.4377152, "tags": {"addr:floor": "G", "amenity": "fast_food", "check_date": "2025-07-27", "internet_access": "no", "level": "0", "name": "Bhaidar Momo Shop", "payment:cards": "no", "payment:cash": "yes", "payment:credit_cards": "no", "payment:debit_cards": "no", "wheelchair": "limited"}}, {"type": "node", "id": 13028314340, "lat": 26.6915737, "lon": 88.4366946, "tags": {"addr:floor": "1", "amenity": "fast_food", "brand": "Domino's", "brand:wikidata": "Q839466", "check_date": "2025-10-30", "cuisine": "pizza", "internet_access": "no", "level": "1", "name": "Domino's", "payment:cash": "yes", "payment:debit_cards": "yes", "payment:upi": "yes", "takeaway": "yes", "wheelchair": "limited"}}, {"type": "node", "id": 13028314342, "lat": 26.6937375, "lon": 88.4360991, "tags": {"addr:floor": "G", "amenity": "pharmacy", "brand": "Apollo Pharmacy", "brand:wikidata": "Q62562612", "check_date": "2025-10-30", "dispensing": "yes", "drive_through": "no", "healthcare": "pharmacy", "level": "0", "name": "Apollo Pharmacy", "wheelchair": "no"}}, {"type": "node", "id": 13028314344, "lat": 26.695024, "lon": 88.4361523, "tags": {"addr:floor": "G", "check_date": "2025-10-30", "internet_access": "no", "level": "0", "name": "Just Adda", "payment:cards": "no", "payment:cash": "yes", "payment:credit_cards": "no", "payment:debit_cards": "no", "payment:upi": "yes", "shop": "convenience", "wheelchair": "limited"}}, {"type": "node", "id": 13028314348, "lat": 26.6970149, "lon": 88.4327199, "tags": {"addr:floor": "G", "check_date": "2025-07-27", "internet_access": "no", "level": "0", "name": "Rupkatha", "payment:cards": "no", "payment:cash": "yes", "payment:credit_cards": "no", "payment:debit_cards": "no", "shop": "convenience", "wheelchair": "limited"}}, {"type": "node", "id": 13028314362, "lat": 26.7162806, "lon": 88.424391, "tags": {"addr:floor": "G", "amenity": "restaurant", "check_date": "2025-07-27", "internet_access": "no", "level": "0", "name": "Delicious Restaurant", "wheelchair": "limited"}}, {"type": "node", "id": 13028314365, "lat": 26.7162104, "lon": 88.4243482, "tags": {"addr:floor": "G", "amenity": "restaurant", "check_date": "2025-07-27", "internet_access": "no", "level": "0", "name": "Desi Galli Restaurant", "payment:cards": "no", "payment:cash": "yes", "payment:credit_cards": "no", "payment:debit_cards": "no", "payment:upi": "yes", "wheelchair": "no"}}, {"type": "node", "id": 13028314376, "lat": 26.7160784, "lon": 88.4248149, "tags": {"addr:floor": "G", "amenity": "restaurant", "check_date": "2025-07-27", "internet_access": "no", "level": "0", "name": "Disco Hotel", "payment:cards": "no", "payment:cash": "yes", "payment:credit_cards": "no", "payment:debit_cards": "no", "wheelchair": "limited"}}, {"type": "node", "id": 13028319923, "lat": 26.7190731, "lon": 88.4266978, "tags": {"addr:floor": "1", "amenity": "fast_food", "brand": "Domino's", "brand:wikidata": "Q839466", "check_date": "2025-07-27", "cuisine": "pizza", "internet_access": "no", "level": "1", "name": "Domino's", "payment:cash": "yes", "payment:debit_cards": "yes", "payment:upi": "yes", "takeaway": "yes", "wheelchair": "no"}}, {"type": "node", "id": 13028324905, "lat": 26.717973, "lon": 88.4212214, "tags": {"addr:floor": "G", "amenity": "restaurant", "check_date": "2025-07-27", "internet_access": "no", "level": "0", "name": "Paul Punjab Family Restaurant", "payment:cash": "yes", "payment:credit_cards": "yes", "payment:debit_cards": "yes", "wheelchair": "no"}}, {"type": "node", "id": 13028324907, "lat": 26.7182053, "lon": 88.4210362, "tags": {"amenity": "fast_food", "check_date": "2025-07-27", "name": "Shan E Punjab"}}, {"type": "node", "id": 13028477636, "lat": 26.7188975, "lon": 88.4266998, "tags": {"addr:floor": "1", "amenity": "restaurant", "check_date": "2025-07-27", "level": "1", "name": "Aaheli Restaurant", "payment:upi": "yes", "wheelchair": "no"}}, {"type": "node", "id": 13028477642, "lat": 26.7152743, "lon": 88.4210379, "tags": {"addr:floor": "G", "check_date": "2025-09-08", "internet_access": "no", "level": "0", "name": "Jaiswal Pan Ghar", "payment:cards": "no", "payment:cash": "yes", "payment:credit_cards": "no", "payment:debit_cards": "no", "payment:upi": "yes", "shop": "convenience", "wheelchair": "limited"}}, {"type": "node", "id": 13029780599, "lat": 26.7190717, "lon": 88.4251809}, {"type": "node", "id": 13029780600, "lat": 26.7190836, "lon": 88.4251632}, {"type": "node", "id": 13029851601, "lat": 26.7188495, "lon": 88.4253192}, {"type": "node", "id": 13029851602, "lat": 26.7190454, "lon": 88.4254829}, {"type": "node", "id": 13029851603, "lat": 26.7191841, "lon": 88.4252748}, {"type": "node", "id": 13029851604, "lat": 26.7190001, "lon": 88.4250934}, {"type": "node", "id": 13051469087, "lat": 26.7045754, "lon": 88.4417382, "tags": {"addr:floor": "G", "amenity": "cafe", "check_date": "2025-08-06", "internet_access": "no", "level": "0", "name": "The Mom's Cafe", "payment:cards": "no", "payment:cash": "yes", "payment:credit_cards": "no", "payment:debit_cards": "no", "payment:upi": "yes"}}, {"type": "node", "id": 13057742660, "lat": 26.7037652, "lon": 88.4460713, "tags": {"addr:postcode": "734006", "name": "Chhaya Bhander", "payment:cash": "yes", "shop": "convenience"}}, {"type": "node", "id": 13059499355, "lat": 26.7052731, "lon": 88.4459775, "tags": {"shop": "convenience"}}, {"type": "node", "id": 13059499365, "lat": 26.7041749, "lon": 88.4486452, "tags": {"shop": "convenience"}}, {"type": "node", "id": 13059499369, "lat": 26.7036469, "lon": 88.4469212, "tags": {"shop": "convenience"}}, {"type": "node", "id": 13059499370, "lat": 26.70364, "lon": 88.4469299, "tags": {"amenity": "restaurant", "name": "Nil Akash Hotel"}}, {"type": "node", "id": 13059499376, "lat": 26.7037748, "lon": 88.446426, "tags": {"amenity": "restaurant", "name": "Maa Hotel"}}, {"type": "node", "id": 13087159512, "lat": 26.6673788, "lon": 88.4153427}, {"type": "node", "id": 13087159700, "lat": 26.6670747, "lon": 88.4151934}, {"type": "node", "id": 13087159701, "lat": 26.667517, "lon": 88.4153168}, {"type": "node", "id": 13101138676, "lat": 26.7111591, "lon": 88.4291527, "tags": {"addr:city": "Siliguri, West Bengal", "addr:district": "Siliguri", "addr:housenumber": "Ward 17", "addr:postcode": "734001", "addr:street": "Ashutosh Mukherjee Road", "amenity": "fast_food", "cuisine": "tea;coffee_shop;sandwich;chinese;nepalese;indian", "diet:non-vegetarian": "yes", "diet:vegetarian": "yes", "name": "Tea Villa Cafe", "opening_hours": "4PM to 11PM", "phone": "82509 81483"}}, {"type": "node", "id": 13127819602, "lat": 26.7120894, "lon": 88.4255671, "tags": {"addr:floor": "G", "check_date": "2025-09-08", "internet_access": "no", "level": "0", "name": "Anjali Pan Ghar", "name:bn": "\u0985\u099e\u09cd\u099c\u09b2\u09bf \u09aa\u09be\u09a8 \u0998\u09b0", "payment:cards": "no", "payment:cash": "yes", "payment:credit_cards": "no", "payment:debit_cards": "no", "shop": "convenience", "wheelchair": "no"}}, {"type": "node", "id": 13127819604, "lat": 26.7120156, "lon": 88.425246, "tags": {"addr:floor": "G", "check_date": "2025-09-08", "internet_access": "no", "level": "0", "name": "The Paan Palace", "name:bn": "\u09a6\u09cd\u09af \u09aa\u09be\u09a8 \u09aa\u09cd\u09af\u09be\u09b2\u09c7\u09b8", "payment:cards": "no", "payment:cash": "yes", "payment:credit_cards": "no", "payment:debit_cards": "no", "shop": "convenience", "wheelchair": "no"}}, {"type": "node", "id": 13127819605, "lat": 26.702756, "lon": 88.4405403, "tags": {"addr:floor": "G", "amenity": "restaurant", "check_date": "2025-09-08", "cuisine": "indian", "internet_access": "no", "level": "0", "name": "Bhojan Roshik", "name:bn": "\u09ad\u09cb\u099c\u09a8 \u09b0\u09b8\u09bf\u0995", "outdoor_seating": "only", "payment:cards": "no", "payment:cash": "yes", "payment:credit_cards": "no", "payment:debit_cards": "no", "payment:upi": "yes", "wheelchair": "limited"}}, {"type": "node", "id": 13127819606, "lat": 26.7027217, "lon": 88.440555, "tags": {"addr:floor": "G", "check_date": "2025-09-08", "internet_access": "no", "level": "0", "payment:cards": "no", "payment:cash": "yes", "payment:credit_cards": "no", "payment:debit_cards": "no", "shop": "convenience", "wheelchair": "no"}}, {"type": "node", "id": 13138030347, "lat": 26.7040244, "lon": 88.4348955, "tags": {"addr:floor": "G", "check_date": "2025-09-12", "internet_access": "no", "level": "0", "payment:cards": "no", "payment:cash": "yes", "payment:credit_cards": "no", "payment:debit_cards": "no", "shop": "convenience", "wheelchair": "limited"}}, {"type": "node", "id": 13138030348, "lat": 26.7040228, "lon": 88.4346508, "tags": {"addr:floor": "G", "check_date": "2025-09-12", "internet_access": "no", "level": "0", "payment:cards": "no", "payment:cash": "yes", "payment:credit_cards": "no", "payment:debit_cards": "no", "shop": "convenience", "wheelchair": "no"}}, {"type": "node", "id": 13138030349, "lat": 26.7040806, "lon": 88.4345694, "tags": {"addr:floor": "G", "check_date": "2025-09-12", "internet_access": "no", "level": "0", "payment:cards": "no", "payment:cash": "yes", "payment:credit_cards": "no", "payment:debit_cards": "no", "shop": "convenience", "wheelchair": "no"}}, {"type": "node", "id": 13138030351, "lat": 26.7047382, "lon": 88.4336273, "tags": {"addr:floor": "G", "check_date": "2025-09-12", "internet_access": "no", "level": "0", "name": "Bidhu Enterprise", "payment:cards": "no", "payment:cash": "yes", "payment:credit_cards": "no", "payment:debit_cards": "no", "shop": "convenience", "wheelchair": "no"}}, {"type": "node", "id": 13138030352, "lat": 26.7048769, "lon": 88.433187, "tags": {"addr:floor": "G", "check_date": "2025-09-12", "internet_access": "no", "level": "0", "payment:cards": "no", "payment:cash": "yes", "payment:credit_cards": "no", "payment:debit_cards": "no", "shop": "convenience", "wheelchair": "no"}}, {"type": "node", "id": 13138030354, "lat": 26.7051792, "lon": 88.4322579, "tags": {"addr:floor": "G", "check_date": "2025-09-12", "internet_access": "no", "level": "0", "name": "Srovana Store", "payment:cards": "no", "payment:cash": "yes", "payment:credit_cards": "no", "payment:debit_cards": "no", "shop": "convenience", "wheelchair": "no"}}, {"type": "node", "id": 13138030355, "lat": 26.7055465, "lon": 88.4317751, "tags": {"addr:floor": "G", "check_date": "2025-09-12", "internet_access": "no", "level": "0", "payment:cards": "no", "payment:cash": "yes", "payment:credit_cards": "no", "payment:debit_cards": "no", "shop": "convenience", "wheelchair": "no"}}, {"type": "node", "id": 13138030356, "lat": 26.7056823, "lon": 88.4317587, "tags": {"addr:floor": "G", "check_date": "2025-09-12", "internet_access": "no", "level": "0", "payment:cards": "no", "payment:cash": "yes", "payment:credit_cards": "no", "payment:debit_cards": "no", "shop": "convenience", "wheelchair": "no"}}, {"type": "node", "id": 13138217409, "lat": 26.6829236, "lon": 88.4454444, "tags": {"addr:floor": "G", "check_date": "2025-09-12", "internet_access": "no", "level": "0", "name": "M/S Kampuri Devi Meena", "payment:cards": "no", "payment:cash": "yes", "payment:credit_cards": "no", "payment:debit_cards": "no", "payment:upi": "yes", "shop": "convenience", "wheelchair": "yes"}}, {"type": "node", "id": 13138217410, "lat": 26.6829118, "lon": 88.4453231, "tags": {"check_date": "2025-09-12", "internet_access": "no", "name": "BR Catering & Store", "payment:cards": "no", "payment:cash": "yes", "payment:credit_cards": "no", "payment:debit_cards": "no", "payment:upi": "yes", "shop": "convenience", "wheelchair": "yes"}}, {"type": "node", "id": 13138217415, "lat": 26.6828713, "lon": 88.444995, "tags": {"addr:floor": "G", "check_date": "2025-09-12", "internet_access": "no", "level": "0", "name": "M/S Goldy Caterers", "payment:cards": "no", "payment:cash": "yes", "payment:credit_cards": "no", "payment:debit_cards": "no", "payment:upi": "yes", "shop": "convenience", "wheelchair": "yes"}}, {"type": "node", "id": 13138217416, "lat": 26.6828488, "lon": 88.4447675, "tags": {"addr:floor": "G", "check_date": "2025-09-12", "internet_access": "no", "level": "0", "name": "Mr. Suman Kumar Roy", "payment:cards": "no", "payment:cash": "yes", "payment:credit_cards": "no", "payment:debit_cards": "no", "payment:upi": "yes", "shop": "convenience", "wheelchair": "yes"}}, {"type": "node", "id": 13138217421, "lat": 26.6828161, "lon": 88.444457, "tags": {"addr:floor": "G", "check_date": "2025-09-12", "internet_access": "no", "level": "0", "name": "M/S Goldy Caterers", "payment:cards": "no", "payment:cash": "yes", "payment:credit_cards": "no", "payment:debit_cards": "no", "payment:upi": "yes", "shop": "convenience", "wheelchair": "yes"}}, {"type": "node", "id": 13138217426, "lat": 26.6827798, "lon": 88.4442099, "tags": {"addr:floor": "G", "check_date": "2025-09-12", "internet_access": "no", "level": "0", "name": "M/S Arvind Kumar", "payment:cards": "no", "payment:cash": "yes", "payment:credit_cards": "no", "payment:debit_cards": "no", "payment:upi": "yes", "shop": "convenience", "wheelchair": "yes"}}, {"type": "node", "id": 13138217430, "lat": 26.6828366, "lon": 88.4446278, "tags": {"addr:floor": "G", "check_date": "2025-09-12", "internet_access": "no", "level": "0", "name": "SS Enterprise", "payment:cards": "no", "payment:cash": "yes", "payment:credit_cards": "no", "payment:debit_cards": "no", "payment:upi": "yes", "shop": "convenience", "wheelchair": "yes"}}, {"type": "node", "id": 13144968098, "lat": 26.705525, "lon": 88.4311299, "tags": {"addr:floor": "G", "check_date": "2025-09-15", "internet_access": "no", "level": "0", "name": "Vijay Tea Stall", "payment:cards": "no", "payment:cash": "yes", "payment:credit_cards": "no", "payment:debit_cards": "no", "payment:upi": "yes", "shop": "convenience", "wheelchair": "yes"}}, {"type": "node", "id": 13149333147, "lat": 26.7138439, "lon": 88.4571041}, {"type": "node", "id": 13149333148, "lat": 26.7140357, "lon": 88.4570437}, {"type": "node", "id": 13149333149, "lat": 26.7140172, "lon": 88.4566733}, {"type": "node", "id": 13149333150, "lat": 26.714139, "lon": 88.4566657}, {"type": "node", "id": 13149333151, "lat": 26.7141217, "lon": 88.4563181}, {"type": "node", "id": 13149333152, "lat": 26.7138058, "lon": 88.4563378}, {"type": "node", "id": 13204399235, "lat": 26.7526918, "lon": 88.4395247, "tags": {"amenity": "cafe", "brand": "Starbucks", "cuisine": "coffee_shop", "name": "Starbucks", "official_name": "Starbucks Coffee", "takeaway": "yes"}}, {"type": "node", "id": 13204550693, "lat": 26.7528967, "lon": 88.4389092, "tags": {"amenity": "fast_food", "brand": "McDonald's", "brand:wikidata": "Q38076", "cuisine": "burger", "name": "McDonald's", "takeaway": "yes"}}, {"type": "node", "id": 13204555144, "lat": 26.7523458, "lon": 88.4390132, "tags": {"amenity": "fast_food", "brand": "Burger King", "brand:wikidata": "Q177054", "cuisine": "burger", "name": "Burger King", "takeaway": "yes"}}, {"type": "node", "id": 13269548347, "lat": 26.7300844, "lon": 88.4313884}, {"type": "node", "id": 13269548348, "lat": 26.7300812, "lon": 88.4315684}, {"type": "node", "id": 13269548349, "lat": 26.7301458, "lon": 88.4315716}, {"type": "node", "id": 13269548350, "lat": 26.7301442, "lon": 88.4316126}, {"type": "node", "id": 13269548351, "lat": 26.7303013, "lon": 88.4316566}, {"type": "node", "id": 13269548352, "lat": 26.7303409, "lon": 88.4314772}, {"type": "node", "id": 13269548353, "lat": 26.72993, "lon": 88.4312792}, {"type": "node", "id": 13269548354, "lat": 26.7298575, "lon": 88.4321295}, {"type": "node", "id": 13269548355, "lat": 26.7298372, "lon": 88.4326062}, {"type": "node", "id": 13269548356, "lat": 26.7294221, "lon": 88.4326002}, {"type": "node", "id": 13269548357, "lat": 26.7294545, "lon": 88.431994}, {"type": "node", "id": 13269548358, "lat": 26.7295587, "lon": 88.4311263}, {"type": "node", "id": 13269888575, "lat": 26.721172, "lon": 88.4273734, "tags": {"addr:floor": "G", "amenity": "restaurant", "check_date": "2025-10-30", "cuisine": "indian", "description": "South Indian Restaurant", "diet:vegetarian": "yes", "internet_access": "no", "level": "0", "name": "Anna ka Dukaan", "payment:cards": "no", "payment:cash": "yes", "payment:credit_cards": "no", "payment:debit_cards": "no", "wheelchair": "no"}}, {"type": "node", "id": 13269888578, "lat": 26.7212001, "lon": 88.427381, "tags": {"addr:floor": "G", "amenity": "cafe", "check_date": "2025-10-30", "cuisine": "coffee_shop", "description": "Coffee & Beverages", "internet_access": "no", "level": "0", "name": "COFFEE HOUSE", "payment:cards": "no", "payment:cash": "yes", "payment:credit_cards": "no", "payment:debit_cards": "no", "wheelchair": "no"}}, {"type": "node", "id": 13269888582, "lat": 26.7213304, "lon": 88.4274038, "tags": {"addr:floor": "G", "check_date": "2025-10-30", "internet_access": "no", "level": "0", "name": "JOY MAA KALI STORES", "payment:cards": "no", "payment:cash": "yes", "payment:credit_cards": "no", "payment:debit_cards": "no", "payment:upi": "yes", "shop": "convenience", "wheelchair": "no"}}, {"type": "node", "id": 13269888586, "lat": 26.7215136, "lon": 88.4274862, "tags": {"addr:floor": "G", "amenity": "restaurant", "check_date": "2025-10-30", "cuisine": "indian", "description": "Lunch & Dinner", "internet_access": "no", "level": "0", "name": "Maa Hotel", "payment:cards": "no", "payment:cash": "yes", "payment:credit_cards": "no", "payment:debit_cards": "no", "phone": "+91 93392 01056; +91 62965 23951", "wheelchair": "no"}}, {"type": "node", "id": 13269888591, "lat": 26.7215889, "lon": 88.4275042, "tags": {"addr:floor": "G", "amenity": "restaurant", "check_date": "2025-10-30", "cuisine": "indian", "internet_access": "no", "level": "0", "name": "Maya Hotel Cum Resturent", "payment:cards": "no", "payment:cash": "yes", "payment:credit_cards": "no", "payment:debit_cards": "no", "wheelchair": "no"}}, {"type": "node", "id": 13269888593, "lat": 26.7216418, "lon": 88.4275206, "tags": {"addr:floor": "G", "amenity": "cafe", "check_date": "2025-10-30", "cuisine": "tea", "description": "Tea Stall", "internet_access": "no", "level": "0", "name": "Moushumi Tea Stall", "outdoor_seating": "yes", "payment:cards": "no", "payment:cash": "yes", "payment:credit_cards": "no", "payment:debit_cards": "no", "wheelchair": "no"}}, {"type": "node", "id": 13269923592, "lat": 26.7202202, "lon": 88.4269805, "tags": {"amenity": "restaurant", "check_date": "2025-10-30", "cuisine": "indian", "diet:non-vegetarian": "yes", "diet:vegetarian": "yes", "internet_access": "no", "name": "Kalpataru Price Hotel", "payment:cards": "no", "payment:cash": "yes", "payment:credit_cards": "no", "payment:debit_cards": "no", "wheelchair": "no"}},